station_id,station_name,state,start_date,end_date,latitude,longitude,in_basins,break_with_basins,network,start_date_to_use,end_date_to_use
010160,ALEXANDER CITY,AL,1970-01-01 00:00:00,2006-12-31 00:00:00,32.945,-85.948,True,True,basins,1970-01-01 00:00:00,2006-12-31 00:00:00
010184,ALICEVILLE L AND D,AL,1980-04-30 00:00:00,2006-12-31 00:00:00,33.21,-88.288,True,True,basins,1980-04-30 00:00:00,2006-12-31 00:00:00
010272,ANNISTON METRO AP,AL,2000-12-31 00:00:00,2006-12-31 00:00:00,33.587,-85.856,True,True,basins,2000-12-31 00:00:00,2006-12-31 00:00:00
010440,AUTAUGAVILLE 3 N,AL,1970-01-01 00:00:00,2001-09-30 00:00:00,32.471,-86.68,True,True,basins,1970-01-01 00:00:00,2001-09-30 00:00:00
010505,BANKHEAD LOCK AND DAM,AL,1970-01-01 00:00:00,2006-12-31 00:00:00,33.453,-87.357,True,True,basins,1970-01-01 00:00:00,2006-12-31 00:00:00
010583,BAY MINETTE,AL,1970-01-01 00:00:00,2006-12-31 00:00:00,30.884,-87.785,True,True,basins,1970-01-01 00:00:00,2006-12-31 00:00:00
010655,BELLE MINA 2 N,AL,1970-01-01 00:00:00,2006-12-31 00:00:00,34.691,-86.882,True,True,basins,1970-01-01 00:00:00,2006-12-31 00:00:00
010764,BESSEMER 3 WSW,AL,1977-01-31 00:00:00,2006-12-31 00:00:00,33.395,-87.008,True,True,basins,1977-01-31 00:00:00,2006-12-31 00:00:00
010823,BILLINGSLEY 3 NE,AL,1996-01-01 00:00:00,2006-12-31 00:00:00,32.673,-86.665,True,True,basins,1996-01-01 00:00:00,2006-12-31 00:00:00
010831,BIRMINGHAM INTL AP,AL,1970-01-01 00:00:00,2006-12-31 00:00:00,33.566,-86.745,True,True,basins,1970-01-01 00:00:00,2006-12-31 00:00:00
011080,BREWTON 3 ENE,AL,1977-03-31 00:00:00,2006-12-31 00:00:00,31.141,-87.048,True,True,basins,1977-03-31 00:00:00,2006-12-31 00:00:00
011084,BREWTON 3 SSE,AL,1970-01-01 00:00:00,2006-12-31 00:00:00,31.058,-87.055,True,True,basins,1970-01-01 00:00:00,2006-12-31 00:00:00
011143,BROOKWOOD,AL,1970-01-01 00:00:00,2006-04-30 00:00:00,33.254,-87.294,True,True,basins,1970-01-01 00:00:00,2006-04-30 00:00:00
011178,BRUNDIDGE,AL,1996-01-01 00:00:00,2006-12-31 00:00:00,31.706,-85.837,True,True,basins,1996-01-01 00:00:00,2006-12-31 00:00:00
011225,CAHABA PUMP HOUSE,AL,1981-11-30 00:00:00,2006-12-31 00:00:00,33.451,-86.715,True,True,basins,1981-11-30 00:00:00,2006-12-31 00:00:00
011288,CALERA,AL,1990-12-31 00:00:00,2006-12-31 00:00:00,33.111,-86.746,True,True,basins,1990-12-31 00:00:00,2006-12-31 00:00:00
011301,CAMDEN 3 NW,AL,1970-01-01 00:00:00,2001-12-31 00:00:00,32.029,-87.317,True,True,basins,1970-01-01 00:00:00,2001-12-31 00:00:00
011324,CAMP HILL 2 NW,AL,1991-09-01 00:00:00,2001-08-31 00:00:00,32.824,-85.656,True,True,basins,1991-09-01 00:00:00,2001-08-31 00:00:00
011377,CARBON HILL,AL,1970-01-01 00:00:00,2005-12-31 00:00:00,33.893,-87.528,True,True,basins,1970-01-01 00:00:00,2005-12-31 00:00:00
011525,CENTREVILLE 6 SW,AL,1974-11-30 00:00:00,2006-12-31 00:00:00,32.866,-87.238,True,True,basins,1974-11-30 00:00:00,2006-12-31 00:00:00
011566,CHATOM,AL,1970-01-01 00:00:00,2006-12-31 00:00:00,31.471,-88.25,True,True,basins,1970-01-01 00:00:00,2006-12-31 00:00:00
011620,CHILDERSBURG WATER PLANT,AL,1970-01-01 00:00:00,2006-12-31 00:00:00,33.282,-86.344,True,True,basins,1970-01-01 00:00:00,2006-12-31 00:00:00
011690,CLAIBORNE L & D,AL,1970-01-01 00:00:00,2006-12-31 00:00:00,31.617,-87.55,True,True,basins,1970-01-01 00:00:00,2006-12-31 00:00:00
011694,CLANTON,AL,1970-01-01 00:00:00,2006-11-30 00:00:00,32.82,-86.652,True,True,basins,1970-01-01 00:00:00,2006-11-30 00:00:00
011725,CLAYTON,AL,1970-01-01 00:00:00,2006-10-31 00:00:00,31.884,-85.479,True,True,basins,1970-01-01 00:00:00,2006-10-31 00:00:00
011803,CODEN,AL,1970-01-01 00:00:00,2006-12-31 00:00:00,30.388,-88.228,True,True,basins,1970-01-01 00:00:00,2006-12-31 00:00:00
011810,COFFEEVILLE L & D,AL,1982-11-30 00:00:00,2006-12-31 00:00:00,31.756,-88.128,True,True,basins,1982-11-30 00:00:00,2006-12-31 00:00:00
012096,CULLMAN NAHS,AL,1994-11-30 00:00:00,2006-12-31 00:00:00,34.193,-86.797,True,True,basins,1994-11-30 00:00:00,2006-12-31 00:00:00
012209,DECATUR 5SE,AL,1998-11-30 00:00:00,2006-12-31 00:00:00,34.566,-86.954,True,True,basins,1998-11-30 00:00:00,2006-12-31 00:00:00
012245,DEMOPOLIS LOCK AND DAM,AL,1970-01-01 00:00:00,2006-12-31 00:00:00,32.519,-87.879,True,True,basins,1970-01-01 00:00:00,2006-12-31 00:00:00
012577,ELBA,AL,1970-01-01 00:00:00,2006-12-31 00:00:00,31.424,-86.067,True,True,basins,1970-01-01 00:00:00,2006-12-31 00:00:00
012730,EUFAULA WILDLIFE REF,AL,1970-01-01 00:00:00,2006-12-31 00:00:00,32.009,-85.092,True,True,basins,1970-01-01 00:00:00,2006-12-31 00:00:00
012813,FAIRHOPE 2 NE,AL,1970-01-01 00:00:00,2006-12-31 00:00:00,30.547,-87.881,True,True,basins,1970-01-01 00:00:00,2006-12-31 00:00:00
012883,FAYETTE,AL,1970-01-01 00:00:00,2006-12-31 00:00:00,33.685,-87.822,True,True,basins,1970-01-01 00:00:00,2006-12-31 00:00:00
013154,GADSDEN,AL,1970-01-01 00:00:00,2006-12-31 00:00:00,34.022,-85.988,True,True,basins,1970-01-01 00:00:00,2006-12-31 00:00:00
013160,GAINESVILLE LOCK,AL,1970-01-01 00:00:00,2006-12-31 00:00:00,32.835,-88.134,True,True,basins,1970-01-01 00:00:00,2006-12-31 00:00:00
013251,GENEVA NO 2,AL,1976-04-30 00:00:00,2006-12-31 00:00:00,31.038,-85.871,True,True,basins,1976-04-30 00:00:00,2006-12-31 00:00:00
013271,GEORGIANA,AL,1970-01-01 00:00:00,2004-07-31 00:00:00,31.677,-86.806,True,True,basins,1970-01-01 00:00:00,2004-07-31 00:00:00
013573,GUNTERSVILLE,AL,1970-01-01 00:00:00,2006-12-31 00:00:00,34.334,-86.33,True,True,basins,1970-01-01 00:00:00,2006-12-31 00:00:00
013575,GUNTERSVILLE NO 2,AL,1995-10-31 00:00:00,2006-12-31 00:00:00,34.335,-86.329,True,True,basins,1995-10-31 00:00:00,2006-12-31 00:00:00
013655,HANCEVILLE,AL,1973-04-01 00:00:00,2006-12-31 00:00:00,34.062,-86.762,True,True,basins,1973-04-01 00:00:00,2006-12-31 00:00:00
013761,HEADLAND,AL,1970-01-01 00:00:00,2006-12-31 00:00:00,31.362,-85.34,True,True,basins,1970-01-01 00:00:00,2006-12-31 00:00:00
013775,HEFLIN,AL,1970-01-01 00:00:00,2006-12-31 00:00:00,33.648,-85.601,True,True,basins,1970-01-01 00:00:00,2006-12-31 00:00:00
013781,HELENA,AL,2000-02-29 00:00:00,2006-12-31 00:00:00,33.272,-86.834,True,True,basins,2000-02-29 00:00:00,2006-12-31 00:00:00
013816,HIGHLAND HOME,AL,1970-01-01 00:00:00,2006-12-31 00:00:00,31.87,-86.254,True,True,basins,1970-01-01 00:00:00,2006-12-31 00:00:00
013842,HIGHTOWER,AL,1970-01-01 00:00:00,2006-03-31 00:00:00,33.517,-85.378,True,True,basins,1970-01-01 00:00:00,2006-03-31 00:00:00
013930,HOLT LOCK AND DAM,AL,1980-12-31 00:00:00,2006-12-31 00:00:00,33.253,-87.45,True,True,basins,1980-12-31 00:00:00,2006-12-31 00:00:00
014064,HUNTSVILLE INTL AP,AL,1970-01-01 00:00:00,2006-12-31 00:00:00,34.644,-86.786,True,True,basins,1970-01-01 00:00:00,2006-12-31 00:00:00
014080,HURTSBORO,AL,1978-04-30 00:00:00,2005-03-31 00:00:00,32.243,-85.415,True,True,basins,1978-04-30 00:00:00,2005-03-31 00:00:00
014226,JASPER,AL,1970-01-01 00:00:00,2006-12-31 00:00:00,33.905,-87.315,True,True,basins,1970-01-01 00:00:00,2006-12-31 00:00:00
014274,JONES BLUFF LOCK & DAM,AL,1980-12-31 00:00:00,2006-12-31 00:00:00,32.323,-86.783,True,True,basins,1980-12-31 00:00:00,2006-12-31 00:00:00
014431,KINSTON,AL,1970-01-01 00:00:00,2006-12-31 00:00:00,31.24,-86.195,True,True,basins,1970-01-01 00:00:00,2006-12-31 00:00:00
014502,LAFAYETTE 2 W,AL,1970-01-01 00:00:00,2006-12-31 00:00:00,32.907,-85.434,True,True,basins,1970-01-01 00:00:00,2006-12-31 00:00:00
014619,LEEDS,AL,1970-01-01 00:00:00,2006-12-31 00:00:00,33.545,-86.527,True,True,basins,1970-01-01 00:00:00,2006-12-31 00:00:00
014798,LIVINGSTON,AL,1970-01-01 00:00:00,2006-12-31 00:00:00,32.581,-88.19,True,True,basins,1970-01-01 00:00:00,2006-12-31 00:00:00
015112,MARION 7 NE,AL,1970-01-01 00:00:00,2004-12-31 00:00:00,32.703,-87.268,True,True,basins,1970-01-01 00:00:00,2004-12-31 00:00:00
015121,MARION JUNCTION 2 NE,AL,1970-01-01 00:00:00,2006-12-31 00:00:00,32.471,-87.231,True,True,basins,1970-01-01 00:00:00,2006-12-31 00:00:00
015420,MILLERS FERRY L & D,AL,1980-12-31 00:00:00,2006-12-31 00:00:00,32.10,-87.398,True,True,basins,1980-12-31 00:00:00,2006-12-31 00:00:00
015435,MILLPORT 2 E,AL,1981-09-30 00:00:00,2006-12-31 00:00:00,33.57,-88.033,True,True,basins,1981-09-30 00:00:00,2006-12-31 00:00:00
015439,MILSTEAD,AL,1970-01-01 00:00:00,2006-12-31 00:00:00,32.442,-85.889,True,True,basins,1970-01-01 00:00:00,2006-12-31 00:00:00
015478,MOBILE REGIONAL AP,AL,1970-01-01 00:00:00,2006-12-31 00:00:00,30.688,-88.246,True,True,basins,1970-01-01 00:00:00,2006-12-31 00:00:00
015537,MONTEVALLO,AL,1970-01-01 00:00:00,2005-11-30 00:00:00,33.098,-86.867,True,True,basins,1970-01-01 00:00:00,2005-11-30 00:00:00
015547,MONTGOMERY NO 2,AL,1995-12-31 00:00:00,2005-08-31 00:00:00,32.304,-86.40,True,True,basins,1995-12-31 00:00:00,2005-08-31 00:00:00
015550,MONTGOMERY DANNELLY FIELD,AL,1970-01-01 00:00:00,2006-12-31 00:00:00,32.30,-86.408,True,True,basins,1970-01-01 00:00:00,2006-12-31 00:00:00
015635,MOULTON 2,AL,1970-01-01 00:00:00,2006-01-31 00:00:00,34.486,-87.293,True,True,basins,1970-01-01 00:00:00,2006-01-31 00:00:00
015658,MOUNDVILLE,AL,1981-11-30 00:00:00,2005-12-31 00:00:00,32.995,-87.622,True,True,basins,1981-11-30 00:00:00,2005-12-31 00:00:00
015749,MUSCLE SHOALS AP,AL,1970-01-01 00:00:00,2006-12-31 00:00:00,34.744,-87.60,True,True,basins,1970-01-01 00:00:00,2006-12-31 00:00:00
016121,ONEONTA,AL,1970-01-01 00:00:00,2005-12-31 00:00:00,33.948,-86.469,True,True,basins,1970-01-01 00:00:00,2005-12-31 00:00:00
016129,OPELIKA,AL,1970-01-01 00:00:00,2006-11-30 00:00:00,32.659,-85.449,True,True,basins,1970-01-01 00:00:00,2006-11-30 00:00:00
016246,PALMERDALE,AL,1970-01-01 00:00:00,2006-09-30 00:00:00,33.745,-86.643,True,True,basins,1970-01-01 00:00:00,2006-09-30 00:00:00
016362,PERRYVILLE,AL,1970-01-01 00:00:00,2004-10-31 00:00:00,32.657,-87.093,True,True,basins,1970-01-01 00:00:00,2004-10-31 00:00:00
016370,PETERMAN,AL,1970-01-01 00:00:00,2006-12-31 00:00:00,31.588,-87.268,True,True,basins,1970-01-01 00:00:00,2006-12-31 00:00:00
016436,PINE APPLE,AL,1970-01-01 00:00:00,2006-12-31 00:00:00,31.882,-86.986,True,True,basins,1970-01-01 00:00:00,2006-12-31 00:00:00
016478,PINSON,AL,1980-04-30 00:00:00,2006-12-31 00:00:00,33.691,-86.685,True,True,basins,1980-04-30 00:00:00,2006-12-31 00:00:00
016508,PLANTERSVILLE 2 SSE,AL,1970-01-01 00:00:00,2006-12-31 00:00:00,32.613,-86.906,True,True,basins,1970-01-01 00:00:00,2006-12-31 00:00:00
016847,REFORM,AL,1970-01-01 00:00:00,2006-12-31 00:00:00,33.375,-88.02,True,True,basins,1970-01-01 00:00:00,2006-12-31 00:00:00
016988,ROBERTSDALE,AL,1970-01-01 00:00:00,2006-12-31 00:00:00,30.565,-87.702,True,True,basins,1970-01-01 00:00:00,2006-12-31 00:00:00
017020,ROCKFORD 3 ESE,AL,1970-01-01 00:00:00,2006-12-31 00:00:00,32.871,-86.176,True,True,basins,1970-01-01 00:00:00,2006-12-31 00:00:00
017025,ROCK MILLS,AL,1970-01-01 00:00:00,2006-12-31 00:00:00,33.158,-85.291,True,True,basins,1970-01-01 00:00:00,2006-12-31 00:00:00
017131,RUSSELLVILLE NO 2,AL,1970-01-01 00:00:00,2006-12-31 00:00:00,34.51,-87.732,True,True,basins,1970-01-01 00:00:00,2006-12-31 00:00:00
017157,SAINT BERNARD,AL,1970-01-01 00:00:00,2006-12-31 00:00:00,34.174,-86.813,True,True,basins,1970-01-01 00:00:00,2006-12-31 00:00:00
017207,SAND MT SUBSTATION,AL,1970-01-01 00:00:00,2006-12-31 00:00:00,34.288,-85.968,True,True,basins,1970-01-01 00:00:00,2006-12-31 00:00:00
017304,SCOTTSBORO,AL,1970-01-01 00:00:00,2006-12-31 00:00:00,34.674,-86.054,True,True,basins,1970-01-01 00:00:00,2006-12-31 00:00:00
017366,SELMA,AL,1970-01-01 00:00:00,2006-12-31 00:00:00,32.41,-87.015,True,True,basins,1970-01-01 00:00:00,2006-12-31 00:00:00
017947,SULLIGENT,AL,1984-01-31 00:00:00,2006-12-31 00:00:00,33.90,-88.132,True,True,basins,1984-01-31 00:00:00,2006-12-31 00:00:00
017955,SUMITON,AL,1992-03-31 00:00:00,2004-04-30 00:00:00,33.752,-87.048,True,True,basins,1992-03-31 00:00:00,2004-04-30 00:00:00
017999,SYLACAUGA 4 NE,AL,1970-01-01 00:00:00,2006-12-31 00:00:00,33.205,-86.211,True,True,basins,1970-01-01 00:00:00,2006-12-31 00:00:00
018024,TALLADEGA,AL,1970-01-01 00:00:00,2006-12-31 00:00:00,33.416,-86.135,True,True,basins,1970-01-01 00:00:00,2006-12-31 00:00:00
018038,TALLAPOOSA WTR PLANT,AL,1978-04-30 00:00:00,2006-12-31 00:00:00,32.439,-86.202,True,True,basins,1978-04-30 00:00:00,2006-12-31 00:00:00
018323,TROY,AL,1970-01-01 00:00:00,2006-03-31 00:00:00,31.808,-85.972,True,True,basins,1970-01-01 00:00:00,2006-03-31 00:00:00
018380,TUSCALOOSA ACFD,AL,1970-01-01 00:00:00,2006-12-31 00:00:00,33.222,-87.609,True,True,basins,1970-01-01 00:00:00,2006-12-31 00:00:00
018438,UNION SPRINGS 9 S,AL,1970-01-01 00:00:00,2006-12-31 00:00:00,32.014,-85.746,True,True,basins,1970-01-01 00:00:00,2006-12-31 00:00:00
018446,UNIONTOWN,AL,1970-01-01 00:00:00,2006-11-30 00:00:00,32.472,-87.521,True,True,basins,1970-01-01 00:00:00,2006-11-30 00:00:00
018469,VALLEY HEAD,AL,1970-01-01 00:00:00,2006-12-31 00:00:00,34.567,-85.613,True,True,basins,1970-01-01 00:00:00,2006-12-31 00:00:00
018637,WALLACE 2 E,AL,1970-01-01 00:00:00,2006-12-31 00:00:00,31.21,-87.179,True,True,basins,1970-01-01 00:00:00,2006-12-31 00:00:00
018648,WALNUT GROVE,AL,1970-01-01 00:00:00,2006-12-31 00:00:00,34.066,-86.307,True,True,basins,1970-01-01 00:00:00,2006-12-31 00:00:00
018653,WALNUT HILL 3 W,AL,1993-04-30 00:00:00,2006-12-30 00:00:00,32.703,-85.894,True,True,basins,1993-04-30 00:00:00,2006-12-30 00:00:00
018809,WEST BLOCTON,AL,1970-01-01 00:00:00,2006-12-31 00:00:00,33.119,-87.124,True,True,basins,1970-01-01 00:00:00,2006-12-31 00:00:00
018859,WETUMPKA,AL,1970-01-01 00:00:00,2006-12-31 00:00:00,32.591,-86.21,True,True,basins,1970-01-01 00:00:00,2006-12-31 00:00:00
018867,WHATLEY,AL,1970-01-01 00:00:00,2006-12-31 00:00:00,31.651,-87.71,True,True,basins,1970-01-01 00:00:00,2006-12-31 00:00:00
018998,WINFIELD 2 SW,AL,1970-01-01 00:00:00,2005-05-31 00:00:00,33.911,-87.848,True,True,basins,1970-01-01 00:00:00,2005-05-31 00:00:00
020060,AGUILA,AZ,1970-01-01 00:00:00,2005-07-31 00:00:00,33.943,-113.19,True,True,basins,1970-01-01 00:00:00,2005-07-31 00:00:00
020100,ALAMO DAM,AZ,1970-01-01 00:00:00,2006-12-31 00:00:00,34.228,-113.58,True,True,basins,1970-01-01 00:00:00,2006-12-31 00:00:00
020159,ALPINE,AZ,1970-01-01 00:00:00,2006-12-31 00:00:00,33.849,-109.15,True,True,basins,1970-01-01 00:00:00,2006-12-31 00:00:00
020174,ALPINE 8 SSE,AZ,1989-10-31 00:00:00,2005-12-31 00:00:00,33.738,-109.12,True,True,basins,1989-10-31 00:00:00,2005-12-31 00:00:00
020287,ANVIL RANCH,AZ,1970-01-01 00:00:00,2005-12-31 00:00:00,31.979,-111.38,True,True,basins,1970-01-01 00:00:00,2005-12-31 00:00:00
020288,APACHE JUNCTION 5 NE,AZ,1987-04-30 00:00:00,2006-12-31 00:00:00,33.463,-111.48,True,True,basins,1987-04-30 00:00:00,2006-12-31 00:00:00
020380,ARIVACA,AZ,1970-01-01 00:00:00,2005-02-28 00:00:00,31.572,-111.33,True,True,basins,1970-01-01 00:00:00,2005-02-28 00:00:00
020498,ASHURST HAYDEN DAM,AZ,1970-01-01 00:00:00,2005-09-30 00:00:00,33.087,-111.29,True,True,basins,1970-01-01 00:00:00,2005-09-30 00:00:00
020586,BAGDAD,AZ,1970-01-01 00:00:00,2006-12-31 00:00:00,34.597,-113.17,True,True,basins,1970-01-01 00:00:00,2006-12-31 00:00:00
020632,BARTLETT DAM,AZ,1970-01-01 00:00:00,2006-12-31 00:00:00,33.81,-111.65,True,True,basins,1970-01-01 00:00:00,2006-12-31 00:00:00
020670,BEAVER CREEK,AZ,1970-01-01 00:00:00,2006-12-31 00:00:00,34.642,-111.78,True,True,basins,1970-01-01 00:00:00,2006-12-31 00:00:00
020672,BEAVER DAM,AZ,1996-01-01 00:00:00,2006-12-31 00:00:00,36.897,-113.94,True,True,basins,1996-01-01 00:00:00,2006-12-31 00:00:00
020678,BELLEMONT NWFO,AZ,1999-11-01 00:00:00,2006-12-31 00:00:00,35.23,-111.82,True,True,basins,1999-11-01 00:00:00,2006-12-31 00:00:00
020683,BENSON 6 SE,AZ,1990-04-30 00:00:00,2006-03-31 00:00:00,31.88,-110.24,True,True,basins,1990-04-30 00:00:00,2006-03-31 00:00:00
020750,BETATAKIN,AZ,1970-01-01 00:00:00,2006-12-31 00:00:00,36.678,-110.54,True,True,basins,1970-01-01 00:00:00,2006-12-31 00:00:00
020775,BISBEE 1 WNW,AZ,1996-01-01 00:00:00,2005-12-31 00:00:00,31.448,-109.93,True,True,basins,1996-01-01 00:00:00,2005-12-31 00:00:00
020871,BLUE RIDGE RS,AZ,1970-01-01 00:00:00,2006-12-31 00:00:00,34.61,-111.19,True,True,basins,1970-01-01 00:00:00,2006-12-31 00:00:00
020949,BOUSE,AZ,1970-01-01 00:00:00,2006-12-31 00:00:00,33.943,-114.02,True,True,basins,1970-01-01 00:00:00,2006-12-31 00:00:00
020958,BOWIE,AZ,1970-01-01 00:00:00,2005-12-31 00:00:00,32.324,-109.49,True,True,basins,1970-01-01 00:00:00,2005-12-31 00:00:00
021001,BRIGHT ANGEL RS,AZ,1970-01-01 00:00:00,2006-12-31 00:00:00,36.215,-112.06,True,True,basins,1970-01-01 00:00:00,2006-12-31 00:00:00
021026,BUCKEYE,AZ,1970-01-01 00:00:00,2003-11-30 00:00:00,33.376,-112.58,True,True,basins,1970-01-01 00:00:00,2003-11-30 00:00:00
021050,BULLHEAD CITY,AZ,1977-10-31 00:00:00,2006-12-31 00:00:00,35.141,-114.57,True,True,basins,1977-10-31 00:00:00,2006-12-31 00:00:00
021231,CANELO 1 NW,AZ,1970-01-01 00:00:00,2005-05-31 00:00:00,31.559,-110.53,True,True,basins,1970-01-01 00:00:00,2005-05-31 00:00:00
021248,CANYON DE CHELLY,AZ,1970-11-30 00:00:00,2006-12-31 00:00:00,36.153,-109.54,True,True,basins,1970-11-30 00:00:00,2006-12-31 00:00:00
021282,CAREFREE,AZ,1970-01-01 00:00:00,2006-12-31 00:00:00,33.816,-111.90,True,True,basins,1970-01-01 00:00:00,2006-12-31 00:00:00
021306,CASA GRANDE,AZ,1970-01-01 00:00:00,2006-12-31 00:00:00,32.888,-111.71,True,True,basins,1970-01-01 00:00:00,2006-12-31 00:00:00
021314,CASA GRANDE NATL MONUMENT,AZ,1970-01-01 00:00:00,2006-12-31 00:00:00,32.995,-111.54,True,True,basins,1970-01-01 00:00:00,2006-12-31 00:00:00
021330,CASCABEL,AZ,1970-01-01 00:00:00,2005-10-31 00:00:00,32.321,-110.41,True,True,basins,1970-01-01 00:00:00,2005-10-31 00:00:00
021353,CASTLE HOT SPRINGS,AZ,1970-01-01 00:00:00,2006-12-31 00:00:00,33.982,-112.36,True,True,basins,1970-01-01 00:00:00,2006-12-31 00:00:00
021514,CHANDLER HEIGHTS,AZ,1970-01-01 00:00:00,2005-07-31 00:00:00,33.206,-111.68,True,True,basins,1970-01-01 00:00:00,2005-07-31 00:00:00
021614,CHILDS,AZ,1970-01-01 00:00:00,2005-05-31 00:00:00,34.349,-111.70,True,True,basins,1970-01-01 00:00:00,2005-05-31 00:00:00
021654,CHINO VALLEY,AZ,1970-01-01 00:00:00,2006-12-31 00:00:00,34.757,-112.46,True,True,basins,1970-01-01 00:00:00,2006-12-31 00:00:00
021849,CLIFTON,AZ,1970-01-01 00:00:00,2005-12-31 00:00:00,33.056,-109.31,True,True,basins,1970-01-01 00:00:00,2005-12-31 00:00:00
021920,COLORADO CITY,AZ,1970-01-01 00:00:00,2006-12-31 00:00:00,36.994,-112.97,True,True,basins,1970-01-01 00:00:00,2006-12-31 00:00:00
022109,CORDES,AZ,1970-01-01 00:00:00,2006-12-31 00:00:00,34.305,-112.17,True,True,basins,1970-01-01 00:00:00,2006-12-31 00:00:00
022140,CORONADO N M HDQTRS,AZ,1970-01-01 00:00:00,2006-03-31 00:00:00,31.346,-110.25,True,True,basins,1970-01-01 00:00:00,2006-03-31 00:00:00
022434,DATELAND WHITEWING RANCH,AZ,1972-05-31 00:00:00,2005-07-31 00:00:00,32.971,-113.50,True,True,basins,1972-05-31 00:00:00,2005-07-31 00:00:00
022527,DIAMOND M RANCH,AZ,1999-07-31 00:00:00,2006-11-30 00:00:00,35.297,-113.37,True,True,basins,1999-07-31 00:00:00,2006-11-30 00:00:00
022664,DOUGLAS BISBEE INTL AP,AZ,1970-01-01 00:00:00,2006-12-31 00:00:00,31.458,-109.61,True,True,basins,1970-01-01 00:00:00,2006-12-31 00:00:00
022790,EHRENBERG 2 E,AZ,1977-01-31 00:00:00,2005-12-31 00:00:00,33.613,-114.47,True,True,basins,1977-01-31 00:00:00,2005-12-31 00:00:00
022807,ELOY 4 NE,AZ,1970-01-01 00:00:00,2005-09-30 00:00:00,32.782,-111.52,True,True,basins,1970-01-01 00:00:00,2005-09-30 00:00:00
023010,FLAGSTAFF AP,AZ,1970-01-01 00:00:00,2006-12-31 00:00:00,35.144,-111.67,True,True,basins,1970-01-01 00:00:00,2006-12-31 00:00:00
023027,FLORENCE,AZ,1970-01-01 00:00:00,2006-12-31 00:00:00,33.036,-111.39,True,True,basins,1970-01-01 00:00:00,2006-12-31 00:00:00
023150,FORT THOMAS 2 SW,AZ,1970-01-01 00:00:00,2005-12-31 00:00:00,33.019,-110.00,True,True,basins,1970-01-01 00:00:00,2005-12-31 00:00:00
023160,FORT VALLEY,AZ,1970-01-01 00:00:00,2006-12-31 00:00:00,35.268,-111.74,True,True,basins,1970-01-01 00:00:00,2006-12-31 00:00:00
023190,FOUNTAIN HILLS,AZ,1979-09-30 00:00:00,2005-11-30 00:00:00,33.603,-111.71,True,True,basins,1979-09-30 00:00:00,2005-11-30 00:00:00
023303,GANADO,AZ,1970-01-01 00:00:00,2006-12-31 00:00:00,35.716,-109.57,True,True,basins,1970-01-01 00:00:00,2006-12-31 00:00:00
023393,GILA BEND,AZ,1970-01-01 00:00:00,2006-12-31 00:00:00,32.948,-112.71,True,True,basins,1970-01-01 00:00:00,2006-12-31 00:00:00
023448,GISELA,AZ,1970-01-01 00:00:00,2006-12-31 00:00:00,34.111,-111.28,True,True,basins,1970-01-01 00:00:00,2006-12-31 00:00:00
023505,GLOBE,AZ,1981-02-28 00:00:00,2006-06-30 00:00:00,33.377,-110.77,True,True,basins,1981-02-28 00:00:00,2006-06-30 00:00:00
023596,GRAND CANYON N P 2,AZ,1976-04-30 00:00:00,2006-12-31 00:00:00,36.053,-112.15,True,True,basins,1976-04-30 00:00:00,2006-12-31 00:00:00
023668,GREEN VALLEY,AZ,1988-04-30 00:00:00,2005-12-31 00:00:00,31.893,-111.00,True,True,basins,1988-04-30 00:00:00,2005-12-31 00:00:00
023683,GREER,AZ,1970-01-01 00:00:00,2006-12-31 00:00:00,34.022,-109.45,True,True,basins,1970-01-01 00:00:00,2006-12-31 00:00:00
023828,HAPPY JACK RS,AZ,1970-01-01 00:00:00,2006-12-31 00:00:00,34.743,-111.41,True,True,basins,1970-01-01 00:00:00,2006-12-31 00:00:00
023961,HEBER (BLACK MESA) RANGER STAT,AZ,1970-01-01 00:00:00,2006-12-31 00:00:00,34.393,-110.56,True,True,basins,1970-01-01 00:00:00,2006-12-31 00:00:00
024089,HOLBROOK,AZ,1970-01-01 00:00:00,2005-11-30 00:00:00,34.909,-110.15,True,True,basins,1970-01-01 00:00:00,2005-11-30 00:00:00
024182,HORSESHOE DAM,AZ,1970-01-01 00:00:00,2006-12-31 00:00:00,33.982,-111.71,True,True,basins,1970-01-01 00:00:00,2006-12-31 00:00:00
024391,IRVING,AZ,1970-01-01 00:00:00,2005-03-31 00:00:00,34.403,-111.62,True,True,basins,1970-01-01 00:00:00,2005-03-31 00:00:00
024453,JEROME,AZ,1970-01-01 00:00:00,2006-12-31 00:00:00,34.752,-112.11,True,True,basins,1970-01-01 00:00:00,2006-12-31 00:00:00
024590,KEARNY,AZ,1984-05-31 00:00:00,2005-12-31 00:00:00,33.052,-110.91,True,True,basins,1984-05-31 00:00:00,2005-12-31 00:00:00
024675,KITT PEAK,AZ,1970-01-01 00:00:00,2005-12-31 00:00:00,31.96,-111.60,True,True,basins,1970-01-01 00:00:00,2005-12-31 00:00:00
024702,KOFA MINE,AZ,1970-01-01 00:00:00,2006-12-31 00:00:00,33.274,-113.97,True,True,basins,1970-01-01 00:00:00,2006-12-31 00:00:00
024761,LAKE HAVASU CITY,AZ,1991-02-28 00:00:00,2006-12-31 00:00:00,34.503,-114.36,True,True,basins,1991-02-28 00:00:00,2006-12-31 00:00:00
024829,LAVEEN 3 SSE,AZ,1970-01-01 00:00:00,2006-12-31 00:00:00,33.337,-112.15,True,True,basins,1970-01-01 00:00:00,2006-12-31 00:00:00
024849,LEES FERRY,AZ,1970-01-01 00:00:00,2006-12-31 00:00:00,36.864,-111.60,True,True,basins,1970-01-01 00:00:00,2006-12-31 00:00:00
024977,LITCHFIELD PARK,AZ,1970-01-01 00:00:00,2006-12-31 00:00:00,33.499,-112.36,True,True,basins,1970-01-01 00:00:00,2006-12-31 00:00:00
025129,LUKACHUKAI,AZ,1970-01-01 00:00:00,2006-12-31 00:00:00,36.419,-109.23,True,True,basins,1970-01-01 00:00:00,2006-12-31 00:00:00
025270,MARICOPA 4 N,AZ,1970-01-01 00:00:00,2006-12-31 00:00:00,33.114,-112.03,True,True,basins,1970-01-01 00:00:00,2006-12-31 00:00:00
025412,MC NARY 2 N,AZ,1970-01-01 00:00:00,2006-12-31 00:00:00,34.114,-109.86,True,True,basins,1970-01-01 00:00:00,2006-12-31 00:00:00
025418,MC NEAL,AZ,1970-01-01 00:00:00,2005-12-31 00:00:00,31.602,-109.67,True,True,basins,1970-01-01 00:00:00,2005-12-31 00:00:00
025426,MEADVIEW 1SE,AZ,1996-09-30 00:00:00,2006-12-31 00:00:00,36.003,-114.05,True,True,basins,1996-09-30 00:00:00,2006-12-31 00:00:00
025467,MESA,AZ,1970-01-01 00:00:00,2006-12-31 00:00:00,33.411,-111.82,True,True,basins,1970-01-01 00:00:00,2006-12-31 00:00:00
025512,MIAMI,AZ,1970-01-01 00:00:00,2006-12-31 00:00:00,33.404,-110.87,True,True,basins,1970-01-01 00:00:00,2006-12-31 00:00:00
025665,MONUMENT VALLEY,AZ,1980-09-30 00:00:00,2006-12-31 00:00:00,36.982,-110.11,True,True,basins,1980-09-30 00:00:00,2006-12-31 00:00:00
025700,MORMON FLAT,AZ,1970-01-01 00:00:00,2006-11-30 00:00:00,33.554,-111.44,True,True,basins,1970-01-01 00:00:00,2006-11-30 00:00:00
025780,MUND'S PARK,AZ,1986-05-31 00:00:00,2006-12-31 00:00:00,34.936,-111.64,True,True,basins,1986-05-31 00:00:00,2006-12-31 00:00:00
026132,ORGAN PIPE CACTUS NM,AZ,1970-01-01 00:00:00,2005-12-31 00:00:00,31.956,-112.80,True,True,basins,1970-01-01 00:00:00,2005-12-31 00:00:00
026190,PAINTED DESERT N P,AZ,1973-09-30 00:00:00,2006-12-31 00:00:00,35.065,-109.78,True,True,basins,1973-09-30 00:00:00,2006-12-31 00:00:00
026194,PAINTED ROCK DAM,AZ,1970-01-01 00:00:00,2006-12-31 00:00:00,33.077,-113.03,True,True,basins,1970-01-01 00:00:00,2006-12-31 00:00:00
026250,PARKER,AZ,1970-01-01 00:00:00,2006-12-31 00:00:00,34.155,-114.29,True,True,basins,1970-01-01 00:00:00,2006-12-31 00:00:00
026282,PATAGONIA #2,AZ,1977-12-31 00:00:00,2005-12-31 00:00:00,31.548,-110.75,True,True,basins,1977-12-31 00:00:00,2005-12-31 00:00:00
026323,PAYSON,AZ,1970-01-01 00:00:00,2006-12-31 00:00:00,34.231,-111.34,True,True,basins,1970-01-01 00:00:00,2006-12-31 00:00:00
026328,PEACH SPRINGS,AZ,1970-01-01 00:00:00,2005-08-31 00:00:00,35.541,-113.42,True,True,basins,1970-01-01 00:00:00,2005-08-31 00:00:00
026353,PEARCE SUNSITES,AZ,1970-01-01 00:00:00,2005-12-31 00:00:00,31.936,-109.84,True,True,basins,1970-01-01 00:00:00,2005-12-31 00:00:00
026471,PHANTOM RANCH,AZ,1970-01-01 00:00:00,2006-11-30 00:00:00,36.138,-112.10,True,True,basins,1970-01-01 00:00:00,2006-11-30 00:00:00
026481,PHOENIX AIRPORT,AZ,1970-01-01 00:00:00,2006-12-31 00:00:00,33.428,-112.00,True,True,basins,1970-01-01 00:00:00,2006-12-31 00:00:00
026513,PICACHO 8 SE,AZ,1987-11-30 00:00:00,2005-12-31 00:00:00,32.647,-111.40,True,True,basins,1987-11-30 00:00:00,2005-12-31 00:00:00
026601,PINETOP 2E,AZ,1970-01-01 00:00:00,2006-12-31 00:00:00,34.124,-109.92,True,True,basins,1970-01-01 00:00:00,2006-12-31 00:00:00
026616,PIPE SPRINGS NATL MON,AZ,1970-01-01 00:00:00,2006-12-31 00:00:00,36.859,-112.74,True,True,basins,1970-01-01 00:00:00,2006-12-31 00:00:00
026653,PLEASANT VALLEY R S,AZ,1970-01-01 00:00:00,2006-12-31 00:00:00,34.099,-110.94,True,True,basins,1970-01-01 00:00:00,2006-12-31 00:00:00
026716,PORTAL 4 SW,AZ,1970-01-01 00:00:00,2005-12-31 00:00:00,31.883,-109.21,True,True,basins,1970-01-01 00:00:00,2005-12-31 00:00:00
026796,PRESCOTT,AZ,1970-01-01 00:00:00,2006-12-31 00:00:00,34.571,-112.43,True,True,basins,1970-01-01 00:00:00,2006-12-31 00:00:00
026840,PUNKIN CENTER,AZ,1973-06-30 00:00:00,2005-11-30 00:00:00,33.856,-111.31,True,True,basins,1973-06-30 00:00:00,2005-11-30 00:00:00
026865,QUARTZSITE,AZ,1985-12-31 00:00:00,2006-12-31 00:00:00,33.665,-114.23,True,True,basins,1985-12-31 00:00:00,2006-12-31 00:00:00
027036,REDINGTON,AZ,1970-01-01 00:00:00,2005-12-31 00:00:00,32.39,-110.47,True,True,basins,1970-01-01 00:00:00,2005-12-31 00:00:00
027281,ROOSEVELT 1 WNW,AZ,1970-01-01 00:00:00,2006-12-31 00:00:00,33.673,-111.15,True,True,basins,1970-01-01 00:00:00,2006-12-31 00:00:00
027334,RUCKER CANYON,AZ,1970-01-01 00:00:00,2005-12-31 00:00:00,31.756,-109.41,True,True,basins,1970-01-01 00:00:00,2005-12-31 00:00:00
027370,SACATON,AZ,1970-01-01 00:00:00,2006-12-31 00:00:00,33.08,-111.74,True,True,basins,1970-01-01 00:00:00,2006-12-31 00:00:00
027390,SAFFORD AGRICULTRL CTR,AZ,1970-01-01 00:00:00,2005-12-31 00:00:00,32.815,-109.68,True,True,basins,1970-01-01 00:00:00,2005-12-31 00:00:00
027435,SAINT JOHNS,AZ,1970-01-01 00:00:00,2006-12-26 00:00:00,34.517,-109.40,True,True,basins,1970-01-01 00:00:00,2006-12-26 00:00:00
027480,SAN CARLOS RESERVOIR,AZ,1970-01-01 00:00:00,2006-03-31 00:00:00,33.182,-110.53,True,True,basins,1970-01-01 00:00:00,2006-03-31 00:00:00
027488,SANDERS,AZ,1970-01-01 00:00:00,2006-12-31 00:00:00,35.224,-109.32,True,True,basins,1970-01-01 00:00:00,2006-12-31 00:00:00
027530,SAN MANUEL,AZ,1970-01-01 00:00:00,2005-12-31 00:00:00,32.601,-110.63,True,True,basins,1970-01-01 00:00:00,2005-12-31 00:00:00
027593,SANTA RITA EXP RANGE,AZ,1970-01-01 00:00:00,2006-03-31 00:00:00,31.763,-110.85,True,True,basins,1970-01-01 00:00:00,2006-03-31 00:00:00
027619,SASABE,AZ,1970-01-01 00:00:00,2005-12-31 00:00:00,31.483,-111.54,True,True,basins,1970-01-01 00:00:00,2005-12-31 00:00:00
027622,SASABE 7 NW,AZ,1970-01-01 00:00:00,2005-10-31 00:00:00,31.604,-111.60,True,True,basins,1970-01-01 00:00:00,2005-10-31 00:00:00
027625,SASABE 6 NNE,AZ,1986-12-31 00:00:00,2005-12-31 00:00:00,31.572,-111.50,True,True,basins,1986-12-31 00:00:00,2005-12-31 00:00:00
027716,SELIGMAN,AZ,1970-01-01 00:00:00,2006-12-31 00:00:00,35.332,-112.88,True,True,basins,1970-01-01 00:00:00,2006-12-31 00:00:00
027855,SHOW LOW AIRPORT,AZ,1970-01-01 00:00:00,2006-12-31 00:00:00,34.264,-110.01,True,True,basins,1970-01-01 00:00:00,2006-12-31 00:00:00
027880,SIERRA VISTA,AZ,1982-02-28 00:00:00,2005-12-31 00:00:00,31.555,-110.28,True,True,basins,1982-02-28 00:00:00,2005-12-31 00:00:00
028012,SNOWFLAKE,AZ,1970-01-01 00:00:00,2006-12-31 00:00:00,34.508,-110.08,True,True,basins,1970-01-01 00:00:00,2006-12-31 00:00:00
028112,SOUTH PHOENIX,AZ,1970-01-01 00:00:00,2006-12-31 00:00:00,33.381,-112.07,True,True,basins,1970-01-01 00:00:00,2006-12-31 00:00:00
028162,SPRINGERVILLE,AZ,1970-01-01 00:00:00,2006-12-31 00:00:00,34.129,-109.29,True,True,basins,1970-01-01 00:00:00,2006-12-31 00:00:00
028214,STEWART MOUNTAIN,AZ,1970-01-01 00:00:00,2006-12-31 00:00:00,33.557,-111.54,True,True,basins,1970-01-01 00:00:00,2006-12-31 00:00:00
028273,SUNFLOWER 3 NNW,AZ,1980-07-01 00:00:00,2003-03-31 00:00:00,33.912,-111.49,True,True,basins,1980-07-01 00:00:00,2003-03-31 00:00:00
028329,SUNSET CRATER NATL MONUMENT,AZ,1970-01-01 00:00:00,2006-12-31 00:00:00,35.369,-111.54,True,True,basins,1970-01-01 00:00:00,2006-12-31 00:00:00
028349,SUPERIOR 2 ENE,AZ,1978-10-01 00:00:00,2006-03-31 00:00:00,33.305,-111.07,True,True,basins,1978-10-01 00:00:00,2006-03-31 00:00:00
028396,TACNA 3 NE,AZ,1970-01-01 00:00:00,2006-12-31 00:00:00,32.722,-113.92,True,True,basins,1970-01-01 00:00:00,2006-12-31 00:00:00
028468,TEEC NOS POS,AZ,1970-01-01 00:00:00,2006-12-31 00:00:00,36.923,-109.09,True,True,basins,1970-01-01 00:00:00,2006-12-31 00:00:00
028499,TEMPE ASU,AZ,1970-01-01 00:00:00,2006-12-31 00:00:00,33.426,-111.92,True,True,basins,1970-01-01 00:00:00,2006-12-31 00:00:00
028516,TEMPLE BAR,AZ,1987-11-30 00:00:00,2006-12-31 00:00:00,36.03,-114.33,True,True,basins,1987-11-30 00:00:00,2006-12-31 00:00:00
028598,TOLLESON 1 E,AZ,1970-01-01 00:00:00,2006-12-31 00:00:00,33.452,-112.24,True,True,basins,1970-01-01 00:00:00,2006-12-31 00:00:00
028619,TOMBSTONE,AZ,1970-01-01 00:00:00,2005-12-31 00:00:00,31.706,-110.06,True,True,basins,1970-01-01 00:00:00,2005-12-31 00:00:00
028650,TONTO CREEK FISH HAT 2,AZ,1975-07-31 00:00:00,2006-12-31 00:00:00,34.384,-111.10,True,True,basins,1975-07-31 00:00:00,2006-12-31 00:00:00
028792,TUBA CITY,AZ,1970-01-01 00:00:00,2006-12-31 00:00:00,36.131,-111.24,True,True,basins,1970-01-01 00:00:00,2006-12-31 00:00:00
028795,TUCSON 17 NW,AZ,1982-04-30 00:00:00,2005-12-31 00:00:00,32.254,-111.20,True,True,basins,1982-04-30 00:00:00,2005-12-31 00:00:00
028796,TUCSON CAMP AVE EXP FM,AZ,1970-01-01 00:00:00,2005-12-31 00:00:00,32.282,-110.94,True,True,basins,1970-01-01 00:00:00,2005-12-31 00:00:00
028815,TUCSON WFO,AZ,1970-01-01 00:00:00,2005-12-31 00:00:00,32.229,-110.95,True,True,basins,1970-01-01 00:00:00,2005-12-31 00:00:00
028817,TUSCON U OF A #1,AZ,1982-04-30 00:00:00,2005-12-31 00:00:00,32.258,-111.01,True,True,basins,1982-04-30 00:00:00,2005-12-31 00:00:00
028820,TUCSON INTL AP,AZ,1970-01-01 00:00:00,2006-12-31 00:00:00,32.131,-110.96,True,True,basins,1970-01-01 00:00:00,2006-12-31 00:00:00
028865,TUMACACORI NM,AZ,1970-01-01 00:00:00,2005-05-31 00:00:00,31.568,-111.05,True,True,basins,1970-01-01 00:00:00,2005-05-31 00:00:00
028895,TUWEEP,AZ,1970-01-01 00:00:00,2006-03-31 00:00:00,36.286,-113.06,True,True,basins,1970-01-01 00:00:00,2006-03-31 00:00:00
028904,TUZIGOOT,AZ,1977-06-30 00:00:00,2006-12-31 00:00:00,34.771,-112.03,True,True,basins,1977-06-30 00:00:00,2006-12-31 00:00:00
028995,VAIL,AZ,1977-09-01 00:00:00,2006-03-31 00:00:00,32.05,-110.72,True,True,basins,1977-09-01 00:00:00,2006-03-31 00:00:00
028998,VAIL 7 N,AZ,1992-01-31 00:00:00,2005-12-31 00:00:00,32.126,-110.72,True,True,basins,1992-01-31 00:00:00,2005-12-31 00:00:00
029114,WAHWEAP,AZ,1970-01-01 00:00:00,2006-12-31 00:00:00,36.995,-111.49,True,True,basins,1970-01-01 00:00:00,2006-12-31 00:00:00
029156,WALNUT CANYON NATL MONUMENT,AZ,1970-01-01 00:00:00,2006-12-31 00:00:00,35.171,-111.51,True,True,basins,1970-01-01 00:00:00,2006-12-31 00:00:00
029166,WALNUT GROVE,AZ,1970-01-01 00:00:00,2006-12-31 00:00:00,34.312,-112.56,True,True,basins,1970-01-01 00:00:00,2006-12-31 00:00:00
029287,WICKENBURG,AZ,1970-01-01 00:00:00,2006-12-31 00:00:00,33.979,-112.74,True,True,basins,1970-01-01 00:00:00,2006-12-31 00:00:00
029309,WIKIEUP,AZ,1970-01-01 00:00:00,2006-12-31 00:00:00,34.706,-113.61,True,True,basins,1970-01-01 00:00:00,2006-12-31 00:00:00
029334,WILLCOX,AZ,1970-01-01 00:00:00,2005-10-31 00:00:00,32.261,-109.85,True,True,basins,1970-01-01 00:00:00,2005-10-31 00:00:00
029359,WILLIAMS,AZ,1970-01-01 00:00:00,2006-12-31 00:00:00,35.241,-112.19,True,True,basins,1970-01-01 00:00:00,2006-12-31 00:00:00
029376,WILLOW BEACH,AZ,1970-01-01 00:00:00,2005-08-31 00:00:00,35.869,-114.66,True,True,basins,1970-01-01 00:00:00,2005-08-31 00:00:00
029439,WINSLOW AP,AZ,1970-01-01 00:00:00,2006-12-31 00:00:00,35.028,-110.72,True,True,basins,1970-01-01 00:00:00,2006-12-31 00:00:00
029542,WUPATKI NM,AZ,1970-01-01 00:00:00,2006-12-31 00:00:00,35.525,-111.37,True,True,basins,1970-01-01 00:00:00,2006-12-31 00:00:00
029562,Y LIGHTNING RANCH,AZ,1970-01-01 00:00:00,2005-12-31 00:00:00,31.452,-110.23,True,True,basins,1970-01-01 00:00:00,2005-12-31 00:00:00
029634,YOUNGTOWN,AZ,1970-01-01 00:00:00,2006-12-31 00:00:00,33.595,-112.30,True,True,basins,1970-01-01 00:00:00,2006-12-31 00:00:00
029645,YUCCA 1 NNE,AZ,1970-01-01 00:00:00,2006-12-31 00:00:00,34.877,-114.13,True,True,basins,1970-01-01 00:00:00,2006-12-31 00:00:00
029652,YUMA CITRUS STATION,AZ,1970-01-01 00:00:00,2006-03-31 00:00:00,32.611,-114.64,True,True,basins,1970-01-01 00:00:00,2006-03-31 00:00:00
029654,YUMA PROVING GROUND,AZ,1970-01-01 00:00:00,2006-12-31 00:00:00,32.836,-114.39,True,True,basins,1970-01-01 00:00:00,2006-12-31 00:00:00
029656,YUMA QUARTERMASTER DEP,AZ,1992-12-31 00:00:00,2006-12-31 00:00:00,32.728,-114.62,True,True,basins,1992-12-31 00:00:00,2006-12-31 00:00:00
030006,ABBOTT,AR,1970-01-01 00:00:00,2006-12-31 00:00:00,35.076,-94.202,True,True,basins,1970-01-01 00:00:00,2006-12-31 00:00:00
030150,AMITY 1N,AR,1970-01-01 00:00:00,2006-12-31 00:00:00,34.281,-93.461,True,True,basins,1970-01-01 00:00:00,2006-12-31 00:00:00
030234,ARKANSAS CITY,AR,1970-01-01 00:00:00,2006-12-31 00:00:00,33.606,-91.219,True,True,basins,1970-01-01 00:00:00,2006-12-31 00:00:00
030240,ARKANSAS POST,AR,1970-01-01 00:00:00,2006-12-31 00:00:00,34.025,-91.344,True,True,basins,1970-01-01 00:00:00,2006-12-31 00:00:00
030286,ASHDOWN 4 SSE,AR,1970-01-01 00:00:00,2006-12-31 00:00:00,33.619,-94.10,True,True,basins,1970-01-01 00:00:00,2006-12-31 00:00:00
030300,ATHENS,AR,1970-01-01 00:00:00,2006-12-31 00:00:00,34.322,-93.976,True,True,basins,1970-01-01 00:00:00,2006-12-31 00:00:00
030536,BEEDEVILLE 4 NE,AR,1970-01-01 00:00:00,2006-12-31 00:00:00,35.458,-91.056,True,True,basins,1970-01-01 00:00:00,2006-12-31 00:00:00
030582,BENTON,AR,1970-01-01 00:00:00,2006-12-31 00:00:00,34.568,-92.601,True,True,basins,1970-01-01 00:00:00,2006-12-31 00:00:00
030586,BENTONVILLE 4 S,AR,1970-01-01 00:00:00,2006-12-31 00:00:00,36.322,-94.215,True,True,basins,1970-01-01 00:00:00,2006-12-31 00:00:00
030664,BIG FORK 1 SSE,AR,1970-01-01 00:00:00,2006-12-31 00:00:00,34.469,-93.957,True,True,basins,1970-01-01 00:00:00,2006-12-31 00:00:00
030724,BISMARCK 2 SE,AR,1970-01-01 00:00:00,2006-12-31 00:00:00,34.287,-93.144,True,True,basins,1970-01-01 00:00:00,2006-12-31 00:00:00
030746,BLACK ROCK,AR,1970-01-01 00:00:00,2006-12-31 00:00:00,36.107,-91.104,True,True,basins,1970-01-01 00:00:00,2006-12-31 00:00:00
030800,BLUFF CITY 3 SW,AR,1970-01-01 00:00:00,2006-12-31 00:00:00,33.692,-93.164,True,True,basins,1970-01-01 00:00:00,2006-12-31 00:00:00
030806,BLYTHEVILLE,AR,1970-01-01 00:00:00,2006-12-31 00:00:00,35.924,-89.904,True,True,basins,1970-01-01 00:00:00,2006-12-31 00:00:00
030814,BOGG SPRINGS,AR,1994-10-31 00:00:00,2006-12-31 00:00:00,34.327,-94.412,True,True,basins,1994-10-31 00:00:00,2006-12-31 00:00:00
030820,BONNERDALE 4 SW,AR,1970-01-01 00:00:00,2006-12-31 00:00:00,34.367,-93.423,True,True,basins,1970-01-01 00:00:00,2006-12-31 00:00:00
031132,CALICO ROCK 2 WSW,AR,1970-01-01 00:00:00,2006-12-31 00:00:00,36.109,-92.164,True,True,basins,1970-01-01 00:00:00,2006-12-31 00:00:00
031191,CANE CREEK STATE PARK,AR,1998-08-31 00:00:00,2006-12-31 00:00:00,33.915,-91.771,True,True,basins,1998-08-31 00:00:00,2006-12-31 00:00:00
031310,CENTER RIDGE 4 S,AR,1995-10-31 00:00:00,2006-12-31 00:00:00,35.323,-92.567,True,True,basins,1995-10-31 00:00:00,2006-12-31 00:00:00
031419,CHIMES 12 ESE,AR,1996-09-30 00:00:00,2006-12-31 00:00:00,35.611,-92.561,True,True,basins,1996-09-30 00:00:00,2006-12-31 00:00:00
031442,CLARENDON,AR,1970-01-01 00:00:00,2006-12-31 00:00:00,34.693,-91.298,True,True,basins,1970-01-01 00:00:00,2006-12-31 00:00:00
031459,CLARKSVILLE 2,AR,1993-10-31 00:00:00,2006-12-31 00:00:00,35.456,-93.442,True,True,basins,1993-10-31 00:00:00,2006-12-31 00:00:00
031492,CLINTON 6SE,AR,1970-01-01 00:00:00,2005-10-31 00:00:00,35.543,-92.369,True,True,basins,1970-01-01 00:00:00,2005-10-31 00:00:00
031508,COAL HILL,AR,1998-02-28 00:00:00,2006-12-31 00:00:00,35.438,-93.667,True,True,basins,1998-02-28 00:00:00,2006-12-31 00:00:00
031596,CONWAY,AR,1970-01-01 00:00:00,2006-12-31 00:00:00,35.084,-92.429,True,True,basins,1970-01-01 00:00:00,2006-12-31 00:00:00
031666,COVE,AR,1970-01-01 00:00:00,2006-12-31 00:00:00,34.431,-94.418,True,True,basins,1970-01-01 00:00:00,2006-12-31 00:00:00
031730,CROSSETT 2 SSE,AR,1970-01-01 00:00:00,2006-12-31 00:00:00,33.111,-91.948,True,True,basins,1970-01-01 00:00:00,2006-12-31 00:00:00
031750,CRYSTAL VALLEY,AR,1970-01-01 00:00:00,2006-12-31 00:00:00,34.689,-92.45,True,True,basins,1970-01-01 00:00:00,2006-12-31 00:00:00
031829,DAMASCUS 2 NNE,AR,1970-01-01 00:00:00,2006-12-31 00:00:00,35.405,-92.383,True,True,basins,1970-01-01 00:00:00,2006-12-31 00:00:00
031838,DARDANELLE,AR,1970-01-01 00:00:00,2005-05-31 00:00:00,35.234,-93.168,True,True,basins,1970-01-01 00:00:00,2005-05-31 00:00:00
031900,DEER,AR,1975-05-31 00:00:00,2006-12-31 00:00:00,35.827,-93.204,True,True,basins,1975-05-31 00:00:00,2006-12-31 00:00:00
031962,DERMOTT 3 NE,AR,1970-01-01 00:00:00,2006-12-31 00:00:00,33.56,-91.385,True,True,basins,1970-01-01 00:00:00,2006-12-31 00:00:00
031968,DES ARC,AR,1970-01-01 00:00:00,2006-12-31 00:00:00,34.977,-91.498,True,True,basins,1970-01-01 00:00:00,2006-12-31 00:00:00
032020,DIERKS DAM,AR,1973-05-01 00:00:00,2005-06-30 00:00:00,34.147,-94.089,True,True,basins,1973-05-01 00:00:00,2005-06-30 00:00:00
032300,EL DORADO GOODWIN FLD,AR,1970-01-01 00:00:00,2006-12-31 00:00:00,33.221,-92.814,True,True,basins,1970-01-01 00:00:00,2006-12-31 00:00:00
032355,EUDORA,AR,1970-01-01 00:00:00,2006-12-31 00:00:00,33.114,-91.263,True,True,basins,1970-01-01 00:00:00,2006-12-31 00:00:00
032366,EVENING SHADE 1 NNE,AR,1970-01-01 00:00:00,2006-12-31 00:00:00,36.081,-91.614,True,True,basins,1970-01-01 00:00:00,2006-12-31 00:00:00
032475,FELSENTHAL L & D,AR,1998-05-31 00:00:00,2006-12-31 00:00:00,33.06,-92.124,True,True,basins,1998-05-31 00:00:00,2006-12-31 00:00:00
032540,FORDYCE,AR,1970-01-01 00:00:00,2006-12-31 00:00:00,33.823,-92.432,True,True,basins,1970-01-01 00:00:00,2006-12-31 00:00:00
032574,FORT SMITH REGIONAL AP,AR,1970-01-01 00:00:00,2006-12-31 00:00:00,35.333,-94.363,True,True,basins,1970-01-01 00:00:00,2006-12-31 00:00:00
032760,GEORGETOWN,AR,1970-01-01 00:00:00,2006-12-31 00:00:00,35.128,-91.449,True,True,basins,1970-01-01 00:00:00,2006-12-31 00:00:00
032810,GILLHAM DAM,AR,1970-01-01 00:00:00,2002-02-28 00:00:00,34.206,-94.246,True,True,basins,1970-01-01 00:00:00,2002-02-28 00:00:00
032842,GLENWOOD,AR,1970-01-01 00:00:00,2006-12-31 00:00:00,34.329,-93.535,True,True,basins,1970-01-01 00:00:00,2006-12-31 00:00:00
032922,GRAVELLY 1 ESE,AR,1970-01-01 00:00:00,2006-12-31 00:00:00,34.876,-93.676,True,True,basins,1970-01-01 00:00:00,2006-12-31 00:00:00
032930,GRAVETTE,AR,1970-01-01 00:00:00,2006-12-31 00:00:00,36.426,-94.448,True,True,basins,1970-01-01 00:00:00,2006-12-31 00:00:00
032946,GREEN FOREST,AR,1970-01-01 00:00:00,2006-10-31 00:00:00,36.339,-93.428,True,True,basins,1970-01-01 00:00:00,2006-10-31 00:00:00
032962,GREENBRIER,AR,1970-01-01 00:00:00,2004-05-26 00:00:00,35.235,-92.362,True,True,basins,1970-01-01 00:00:00,2004-05-26 00:00:00
032976,GREENWOOD,AR,1970-01-01 00:00:00,2006-12-31 00:00:00,35.217,-94.26,True,True,basins,1970-01-01 00:00:00,2006-12-31 00:00:00
033019,GRUBBS 4 E,AR,1998-02-28 00:00:00,2006-12-31 00:00:00,35.65,-91.01,True,True,basins,1998-02-28 00:00:00,2006-12-31 00:00:00
033088,HAMBURG,AR,1970-01-01 00:00:00,2004-01-31 00:00:00,33.228,-91.794,True,True,basins,1970-01-01 00:00:00,2004-01-31 00:00:00
033101,HAMPTON 2ESE,AR,1998-08-31 00:00:00,2006-12-31 00:00:00,33.512,-92.437,True,True,basins,1998-08-31 00:00:00,2006-12-31 00:00:00
033165,HARRISON BOONE CNTY AP,AR,1970-01-01 00:00:00,2006-12-31 00:00:00,36.267,-93.157,True,True,basins,1970-01-01 00:00:00,2006-12-31 00:00:00
033242,HELENA,AR,1970-01-01 00:00:00,2006-12-31 00:00:00,34.521,-90.59,True,True,basins,1970-01-01 00:00:00,2006-12-31 00:00:00
033438,HOPPER,AR,1970-01-01 00:00:00,2004-03-31 00:00:00,34.361,-93.682,True,True,basins,1970-01-01 00:00:00,2004-03-31 00:00:00
033442,HORATIO,AR,1970-01-01 00:00:00,2006-12-31 00:00:00,33.935,-94.359,True,True,basins,1970-01-01 00:00:00,2006-12-31 00:00:00
033466,HOT SPRINGS 1 NNE,AR,1970-01-01 00:00:00,2006-12-31 00:00:00,34.514,-93.052,True,True,basins,1970-01-01 00:00:00,2006-12-31 00:00:00
033600,JASPER,AR,1970-01-01 00:00:00,2006-12-31 00:00:00,36.001,-93.188,True,True,basins,1970-01-01 00:00:00,2006-12-31 00:00:00
033704,JESSIEVILLE,AR,1970-01-01 00:00:00,2004-09-30 00:00:00,34.701,-93.057,True,True,basins,1970-01-01 00:00:00,2004-09-30 00:00:00
033734,JONESBORO 2 NE,AR,1970-01-01 00:00:00,2006-12-31 00:00:00,35.849,-90.688,True,True,basins,1970-01-01 00:00:00,2006-12-31 00:00:00
033821,KEISER,AR,1970-01-01 00:00:00,2006-12-31 00:00:00,35.687,-90.096,True,True,basins,1970-01-01 00:00:00,2006-12-31 00:00:00
033831,KELSO,AR,1985-04-30 00:00:00,2005-05-31 00:00:00,33.77,-91.273,True,True,basins,1985-04-30 00:00:00,2005-05-31 00:00:00
033862,KEO,AR,1970-01-01 00:00:00,2006-12-31 00:00:00,34.605,-92.007,True,True,basins,1970-01-01 00:00:00,2006-12-31 00:00:00
034010,LAKE MAUMELLE,AR,1970-01-01 00:00:00,2006-12-31 00:00:00,34.851,-92.489,True,True,basins,1970-01-01 00:00:00,2006-12-31 00:00:00
034060,LANGLEY,AR,1970-01-01 00:00:00,2006-12-29 00:00:00,34.265,-93.815,True,True,basins,1970-01-01 00:00:00,2006-12-29 00:00:00
034106,LEAD HILL,AR,1970-01-01 00:00:00,2006-12-31 00:00:00,36.421,-92.909,True,True,basins,1970-01-01 00:00:00,2006-12-31 00:00:00
034134,LEOLA,AR,1970-01-01 00:00:00,2006-12-31 00:00:00,34.174,-92.595,True,True,basins,1970-01-01 00:00:00,2006-12-31 00:00:00
034248,LITTLE ROCK ADAMS FIELD AIRPOR,AR,1970-01-01 00:00:00,2006-12-31 00:00:00,34.727,-92.239,True,True,basins,1970-01-01 00:00:00,2006-12-31 00:00:00
034290,LONG POOL,AR,1995-04-30 00:00:00,2006-07-31 00:00:00,35.491,-93.179,True,True,basins,1995-04-30 00:00:00,2006-07-31 00:00:00
034528,MADISON 1 NW,AR,1970-01-01 00:00:00,2006-12-31 00:00:00,35.026,-90.735,True,True,basins,1970-01-01 00:00:00,2006-12-31 00:00:00
034562,MALVERN,AR,1970-01-01 00:00:00,2006-12-31 00:00:00,34.366,-92.814,True,True,basins,1970-01-01 00:00:00,2006-12-31 00:00:00
034572,MAMMOTH SPRING,AR,1970-01-01 00:00:00,2006-12-31 00:00:00,36.495,-91.535,True,True,basins,1970-01-01 00:00:00,2006-12-31 00:00:00
034666,MARSHALL,AR,1970-01-01 00:00:00,2006-12-31 00:00:00,35.916,-92.639,True,True,basins,1970-01-01 00:00:00,2006-12-31 00:00:00
034708,MCARTHUR,AR,1985-10-31 00:00:00,2006-12-31 00:00:00,33.687,-91.334,True,True,basins,1985-10-31 00:00:00,2006-12-31 00:00:00
034746,MELBOURNE 5W,AR,1970-01-01 00:00:00,2006-12-31 00:00:00,36.082,-91.982,True,True,basins,1970-01-01 00:00:00,2006-12-31 00:00:00
034900,MONTICELLO MUNI AP,AR,1970-01-01 00:00:00,2006-03-31 00:00:00,33.636,-91.756,True,True,basins,1970-01-01 00:00:00,2006-03-31 00:00:00
034936,MORO BAY STATE PARK,AR,2000-06-30 00:00:00,2006-12-31 00:00:00,33.301,-92.366,True,True,basins,2000-06-30 00:00:00,2006-12-31 00:00:00
034938,MORRILTON,AR,1970-01-01 00:00:00,2006-12-31 00:00:00,35.158,-92.767,True,True,basins,1970-01-01 00:00:00,2006-12-31 00:00:00
034988,MOUNT IDA 3 SE,AR,1970-01-01 00:00:00,2006-12-31 00:00:00,34.541,-93.588,True,True,basins,1970-01-01 00:00:00,2006-12-31 00:00:00
035018,MOUNTAINBURG 2 NE,AR,1985-08-31 00:00:00,2006-12-31 00:00:00,35.649,-94.154,True,True,basins,1985-08-31 00:00:00,2006-12-31 00:00:00
035046,MOUNTAIN VIEW,AR,1970-01-01 00:00:00,2006-07-31 00:00:00,35.863,-92.085,True,True,basins,1970-01-01 00:00:00,2006-07-31 00:00:00
035079,MURFREESBORO 1 W,AR,1970-07-31 00:00:00,2006-12-31 00:00:00,34.078,-93.702,True,True,basins,1970-07-31 00:00:00,2006-12-31 00:00:00
035160,NATURAL DAM,AR,1970-01-01 00:00:00,2006-12-31 00:00:00,35.576,-94.381,True,True,basins,1970-01-01 00:00:00,2006-12-31 00:00:00
035177,NEWHOPE 6 S,AR,1985-04-30 00:00:00,2006-12-31 00:00:00,34.147,-93.894,True,True,basins,1985-04-30 00:00:00,2006-12-31 00:00:00
035186,NEWPORT,AR,1970-01-01 00:00:00,2006-12-31 00:00:00,35.604,-91.274,True,True,basins,1970-01-01 00:00:00,2006-12-31 00:00:00
035320,NORTH LITTLE ROCK WFO,AR,1976-01-01 00:00:00,2006-12-31 00:00:00,34.835,-92.26,True,True,basins,1976-01-01 00:00:00,2006-12-31 00:00:00
035354,ODELL 2 N,AR,1970-01-01 00:00:00,2006-12-31 00:00:00,35.78,-94.416,True,True,basins,1970-01-01 00:00:00,2006-12-31 00:00:00
035358,ODEN 1 SE,AR,1970-01-01 00:00:00,2006-12-31 00:00:00,34.601,-93.767,True,True,basins,1970-01-01 00:00:00,2006-12-31 00:00:00
035428,OMAHA 4 NE,AR,1988-10-31 00:00:00,2006-12-30 00:00:00,36.489,-93.134,True,True,basins,1988-10-31 00:00:00,2006-12-30 00:00:00
035498,OWENSVILLE 3E,AR,1970-01-01 00:00:00,2006-12-31 00:00:00,34.613,-92.774,True,True,basins,1970-01-01 00:00:00,2006-12-31 00:00:00
035512,OZARK 2,AR,1994-02-28 00:00:00,2006-12-31 00:00:00,35.513,-93.868,True,True,basins,1994-02-28 00:00:00,2006-12-31 00:00:00
035514,OZONE,AR,1970-01-01 00:00:00,2006-12-31 00:00:00,35.645,-93.419,True,True,basins,1970-01-01 00:00:00,2006-12-31 00:00:00
035563,PARAGOULD 1S,AR,1979-06-30 00:00:00,2006-12-31 00:00:00,36.034,-90.498,True,True,basins,1979-06-30 00:00:00,2006-12-31 00:00:00
035591,PARKS,AR,1970-01-01 00:00:00,2006-12-31 00:00:00,34.819,-93.961,True,True,basins,1970-01-01 00:00:00,2006-12-31 00:00:00
035691,PERRY,AR,1970-01-01 00:00:00,2006-12-31 00:00:00,35.044,-92.796,True,True,basins,1970-01-01 00:00:00,2006-12-31 00:00:00
035760,PINE RIDGE,AR,1970-01-01 00:00:00,2006-12-31 00:00:00,34.583,-93.901,True,True,basins,1970-01-01 00:00:00,2006-12-31 00:00:00
035770,PINEY GROVE,AR,1970-01-01 00:00:00,2002-12-31 00:00:00,34.173,-93.205,True,True,basins,1970-01-01 00:00:00,2002-12-31 00:00:00
035820,POCAHONTAS 1,AR,1970-01-01 00:00:00,2006-12-31 00:00:00,36.264,-90.968,True,True,basins,1970-01-01 00:00:00,2006-12-31 00:00:00
035831,POINSETT STATE PARK,AR,2000-04-30 00:00:00,2006-12-31 00:00:00,35.533,-90.687,True,True,basins,2000-04-30 00:00:00,2006-12-31 00:00:00
035866,PORTLAND,AR,1970-01-01 00:00:00,2006-12-31 00:00:00,33.251,-91.506,True,True,basins,1970-01-01 00:00:00,2006-12-31 00:00:00
036008,RATCLIFF,AR,1970-01-01 00:00:00,2006-12-31 00:00:00,35.305,-93.877,True,True,basins,1970-01-01 00:00:00,2006-12-31 00:00:00
036253,ROHWER 2 NNE,AR,1970-01-01 00:00:00,2006-12-31 00:00:00,33.81,-91.27,True,True,basins,1970-01-01 00:00:00,2006-12-31 00:00:00
036376,SAINT CHARLES,AR,1970-01-01 00:00:00,2006-12-31 00:00:00,34.37,-91.124,True,True,basins,1970-01-01 00:00:00,2006-12-31 00:00:00
036380,SAINT FRANCIS,AR,1970-01-01 00:00:00,2006-12-31 00:00:00,36.452,-90.147,True,True,basins,1970-01-01 00:00:00,2006-12-31 00:00:00
036506,SEARCY,AR,1970-01-01 00:00:00,2006-12-31 00:00:00,35.268,-91.716,True,True,basins,1970-01-01 00:00:00,2006-12-31 00:00:00
036562,SHERIDAN,AR,1977-02-28 00:00:00,2006-12-31 00:00:00,34.302,-92.391,True,True,basins,1977-02-28 00:00:00,2006-12-31 00:00:00
036768,SPARKMAN,AR,1970-01-01 00:00:00,2006-12-31 00:00:00,33.915,-92.827,True,True,basins,1970-01-01 00:00:00,2006-12-31 00:00:00
036918,STUTTGART,AR,1970-01-01 00:00:00,2006-12-31 00:00:00,34.498,-91.558,True,True,basins,1970-01-01 00:00:00,2006-12-31 00:00:00
036928,SUBIACO,AR,1970-01-01 00:00:00,2006-12-31 00:00:00,35.303,-93.637,True,True,basins,1970-01-01 00:00:00,2006-12-31 00:00:00
037038,TAYLOR,AR,1970-01-01 00:00:00,2001-05-31 00:00:00,33.099,-93.465,True,True,basins,1970-01-01 00:00:00,2001-05-31 00:00:00
037048,TEXARKANA WEBB FIELD,AR,1970-01-01 00:00:00,2006-12-31 00:00:00,33.454,-94.007,True,True,basins,1970-01-01 00:00:00,2006-12-31 00:00:00
037383,VANDERVOORT 1 ENE,AR,1999-09-30 00:00:00,2006-12-31 00:00:00,34.392,-94.353,True,True,basins,1999-09-30 00:00:00,2006-12-31 00:00:00
037582,WARREN 2 WSW,AR,1970-01-01 00:00:00,2006-12-31 00:00:00,33.604,-92.10,True,True,basins,1970-01-01 00:00:00,2006-12-31 00:00:00
037592,WASHITA,AR,1970-01-01 00:00:00,2006-12-31 00:00:00,34.651,-93.535,True,True,basins,1970-01-01 00:00:00,2006-12-31 00:00:00
037712,WEST MEMPHIS,AR,1970-01-01 00:00:00,2006-12-31 00:00:00,35.124,-90.181,True,True,basins,1970-01-01 00:00:00,2006-12-31 00:00:00
040010,ACAMPO 5 NE,CA,1993-12-31 00:00:00,2006-12-31 00:00:00,38.219,-121.20,True,True,basins,1993-12-31 00:00:00,2006-12-31 00:00:00
040014,ACTON ESCONDIDO FC261,CA,1970-01-01 00:00:00,2006-12-31 00:00:00,34.495,-118.27,True,True,basins,1970-01-01 00:00:00,2006-12-31 00:00:00
040029,ADIN RS,CA,1970-01-01 00:00:00,2006-12-31 00:00:00,41.194,-120.94,True,True,basins,1970-01-01 00:00:00,2006-12-31 00:00:00
040136,ALPINE,CA,1970-01-01 00:00:00,2006-12-31 00:00:00,32.836,-116.78,True,True,basins,1970-01-01 00:00:00,2006-12-31 00:00:00
040144,ALTADENA,CA,1970-01-01 00:00:00,2006-12-31 00:00:00,34.182,-118.14,True,True,basins,1970-01-01 00:00:00,2006-12-31 00:00:00
040192,ANAHEIM,CA,1989-08-01 00:00:00,2006-12-31 00:00:00,33.865,-117.84,True,True,basins,1989-08-01 00:00:00,2006-12-31 00:00:00
040232,ANTIOCH PUMP PLANT #3,CA,1970-01-01 00:00:00,2006-12-31 00:00:00,37.986,-121.75,True,True,basins,1970-01-01 00:00:00,2006-12-31 00:00:00
040235,ANZA,CA,1970-01-01 00:00:00,2005-02-28 00:00:00,33.556,-116.67,True,True,basins,1970-01-01 00:00:00,2005-02-28 00:00:00
040343,ASH MOUNTAIN,CA,1970-01-01 00:00:00,2006-12-31 00:00:00,36.491,-118.83,True,True,basins,1970-01-01 00:00:00,2006-12-31 00:00:00
040379,AUBERRY 2 NW,CA,1970-01-01 00:00:00,2006-12-31 00:00:00,37.092,-119.51,True,True,basins,1970-01-01 00:00:00,2006-12-31 00:00:00
040383,AUBURN,CA,1970-01-01 00:00:00,2006-12-30 00:00:00,38.907,-121.08,True,True,basins,1970-01-01 00:00:00,2006-12-30 00:00:00
040422,BADGER,CA,1970-01-01 00:00:00,2006-03-31 00:00:00,36.629,-119.01,True,True,basins,1970-01-01 00:00:00,2006-03-31 00:00:00
040442,BAKERSFIELD AP,CA,1970-01-01 00:00:00,2006-12-31 00:00:00,35.434,-119.05,True,True,basins,1970-01-01 00:00:00,2006-12-31 00:00:00
040444,BAKERSFIELD 5 NW,CA,1998-12-31 00:00:00,2006-12-31 00:00:00,35.419,-119.05,True,True,basins,1998-12-31 00:00:00,2006-12-31 00:00:00
040521,BARSTOW,CA,1980-04-30 00:00:00,2006-12-31 00:00:00,34.893,-117.02,True,True,basins,1980-04-30 00:00:00,2006-12-31 00:00:00
040606,BEAUMONT,CA,1970-01-01 00:00:00,2006-03-31 00:00:00,33.929,-116.97,True,True,basins,1970-01-01 00:00:00,2006-03-31 00:00:00
040673,BEN LOMOND NO 4,CA,1972-11-30 00:00:00,2006-12-31 00:00:00,37.086,-122.08,True,True,basins,1972-11-30 00:00:00,2006-12-31 00:00:00
040684,BENTON INSPECTION STN,CA,1970-01-01 00:00:00,2003-03-31 00:00:00,37.843,-118.48,True,True,basins,1970-01-01 00:00:00,2003-03-31 00:00:00
040738,BIG BAR 4 E,CA,1970-01-01 00:00:00,2006-12-31 00:00:00,40.74,-123.21,True,True,basins,1970-01-01 00:00:00,2006-12-31 00:00:00
040741,BIG BEAR LAKE,CA,1970-01-01 00:00:00,2006-12-31 00:00:00,34.244,-116.90,True,True,basins,1970-01-01 00:00:00,2006-12-31 00:00:00
040798,BIG TUJUNGA DAM FC46,CA,1970-01-01 00:00:00,2006-12-31 00:00:00,34.294,-118.19,True,True,basins,1970-01-01 00:00:00,2006-12-31 00:00:00
040819,BISHOP CREEK INTAKE 2,CA,1970-01-01 00:00:00,2004-09-30 00:00:00,37.248,-118.58,True,True,basins,1970-01-01 00:00:00,2004-09-30 00:00:00
040822,BISHOP AP,CA,1970-01-01 00:00:00,2006-12-31 00:00:00,37.371,-118.36,True,True,basins,1970-01-01 00:00:00,2006-12-31 00:00:00
040823,BISHOP FS,CA,1996-11-30 00:00:00,2004-03-31 00:00:00,37.368,-118.36,True,True,basins,1996-11-30 00:00:00,2004-03-31 00:00:00
040897,BLUE CANYON NYACK AP,CA,1970-01-01 00:00:00,2006-12-31 00:00:00,39.278,-120.71,True,True,basins,1970-01-01 00:00:00,2006-12-31 00:00:00
040924,BLYTHE,CA,1970-01-01 00:00:00,2006-12-31 00:00:00,33.613,-114.60,True,True,basins,1970-01-01 00:00:00,2006-12-31 00:00:00
040927,BLYTHE AP,CA,1970-01-01 00:00:00,2006-03-31 00:00:00,33.619,-114.71,True,True,basins,1970-01-01 00:00:00,2006-03-31 00:00:00
040931,BOCA,CA,1970-01-01 00:00:00,2006-12-31 00:00:00,39.389,-120.09,True,True,basins,1970-01-01 00:00:00,2006-12-31 00:00:00
040943,BODIE,CA,1970-01-01 00:00:00,2006-12-31 00:00:00,38.212,-119.01,True,True,basins,1970-01-01 00:00:00,2006-12-31 00:00:00
040979,BORON,CA,1970-01-01 00:00:00,2006-03-31 00:00:00,35.00,-117.65,True,True,basins,1970-01-01 00:00:00,2006-03-31 00:00:00
040983,BORREGO DESERT PARK,CA,1970-01-01 00:00:00,2006-12-31 00:00:00,33.231,-116.41,True,True,basins,1970-01-01 00:00:00,2006-12-31 00:00:00
041048,BRAWLEY 2 SW,CA,1970-01-01 00:00:00,2006-12-31 00:00:00,32.954,-115.56,True,True,basins,1970-01-01 00:00:00,2006-12-31 00:00:00
041057,BREA DAM,CA,1970-01-01 00:00:00,2006-12-31 00:00:00,33.891,-117.93,True,True,basins,1970-01-01 00:00:00,2006-12-31 00:00:00
041072,BRIDGEPORT,CA,1970-01-01 00:00:00,2004-11-30 00:00:00,38.257,-119.23,True,True,basins,1970-01-01 00:00:00,2004-11-30 00:00:00
041080,BRIDGEVILLE 4 NNW,CA,1970-01-01 00:00:00,2001-01-31 00:00:00,40.519,-123.82,True,True,basins,1970-01-01 00:00:00,2001-01-31 00:00:00
041149,BUCKHORN,CA,1970-01-01 00:00:00,2006-12-31 00:00:00,40.867,-121.85,True,True,basins,1970-01-01 00:00:00,2006-12-31 00:00:00
041159,BUCKS CREEK,CA,1970-01-01 00:00:00,2006-12-31 00:00:00,39.937,-121.31,True,True,basins,1970-01-01 00:00:00,2006-12-31 00:00:00
041214,BURNEY,CA,1970-01-01 00:00:00,2006-12-31 00:00:00,40.879,-121.68,True,True,basins,1970-01-01 00:00:00,2006-12-31 00:00:00
041244,BUTTONWILLOW,CA,1970-01-01 00:00:00,2006-12-31 00:00:00,35.405,-119.47,True,True,basins,1970-01-01 00:00:00,2006-12-31 00:00:00
041253,CACHUMA LAKE,CA,1970-01-01 00:00:00,2002-09-30 00:00:00,34.583,-119.98,True,True,basins,1970-01-01 00:00:00,2002-09-30 00:00:00
041288,CALEXICO 2 NE,CA,1970-01-01 00:00:00,2006-12-31 00:00:00,32.688,-115.46,True,True,basins,1970-01-01 00:00:00,2006-12-31 00:00:00
041312,CALISTOGA,CA,1970-01-01 00:00:00,2006-12-31 00:00:00,38.596,-122.60,True,True,basins,1970-01-01 00:00:00,2006-12-31 00:00:00
041316,CALLAHAN,CA,1970-01-01 00:00:00,2006-12-31 00:00:00,41.311,-122.80,True,True,basins,1970-01-01 00:00:00,2006-12-31 00:00:00
041424,CAMPO,CA,1970-01-01 00:00:00,2006-12-31 00:00:00,32.623,-116.47,True,True,basins,1970-01-01 00:00:00,2006-12-31 00:00:00
041476,CANBY 3 SW,CA,1970-01-01 00:00:00,2006-12-31 00:00:00,41.422,-120.90,True,True,basins,1970-01-01 00:00:00,2006-12-31 00:00:00
041484,CANOGA PARK PIERCE COLLEGE,CA,1970-01-01 00:00:00,2006-06-30 00:00:00,34.182,-118.57,True,True,basins,1970-01-01 00:00:00,2006-06-30 00:00:00
041520,CARBON CANYON WORKMAN,CA,1970-01-01 00:00:00,2001-06-30 00:00:00,33.958,-117.78,True,True,basins,1970-01-01 00:00:00,2001-06-30 00:00:00
041540,CARPINTERIA RESERVOI,CA,1970-01-01 00:00:00,2006-12-31 00:00:00,34.40,-119.48,True,True,basins,1970-01-01 00:00:00,2006-12-31 00:00:00
041606,CECILVILLE,CA,1970-01-01 00:00:00,2003-03-31 00:00:00,41.142,-123.14,True,True,basins,1970-01-01 00:00:00,2003-03-31 00:00:00
041614,CEDARVILLE,CA,1970-01-01 00:00:00,2006-12-31 00:00:00,41.534,-120.17,True,True,basins,1970-01-01 00:00:00,2006-12-31 00:00:00
041682,CHATSWORTH RESERVOIR,CA,1970-01-01 00:00:00,2006-12-31 00:00:00,34.226,-118.62,True,True,basins,1970-01-01 00:00:00,2006-12-31 00:00:00
041697,CHERRY VALLEY DAM,CA,1970-01-01 00:00:00,2006-12-31 00:00:00,37.975,-119.92,True,True,basins,1970-01-01 00:00:00,2006-12-31 00:00:00
041700,CHESTER,CA,1970-01-01 00:00:00,2006-12-31 00:00:00,40.303,-121.24,True,True,basins,1970-01-01 00:00:00,2006-12-31 00:00:00
041733,CHINA LAKE ARMITAGE,CA,1978-06-30 00:00:00,2003-12-31 00:00:00,35.688,-117.69,True,True,basins,1978-06-30 00:00:00,2003-12-31 00:00:00
041754,CHUCHUPATE RANGER STN,CA,1970-01-01 00:00:00,2006-12-31 00:00:00,34.808,-119.01,True,True,basins,1970-01-01 00:00:00,2006-12-31 00:00:00
041758,CHULA VISTA,CA,1970-01-01 00:00:00,2006-12-31 00:00:00,32.64,-117.09,True,True,basins,1970-01-01 00:00:00,2006-12-31 00:00:00
041838,CLOVERDALE,CA,1970-01-01 00:00:00,2006-12-31 00:00:00,38.807,-123.02,True,True,basins,1970-01-01 00:00:00,2006-12-31 00:00:00
041878,COARSEGOLD 1 SW,CA,1977-07-31 00:00:00,2006-11-30 00:00:00,37.25,-119.71,True,True,basins,1977-07-31 00:00:00,2006-11-30 00:00:00
041907,COLEMAN FISHERIES STA,CA,1970-01-01 00:00:00,2006-12-31 00:00:00,40.40,-122.14,True,True,basins,1970-01-01 00:00:00,2006-12-31 00:00:00
041912,COLFAX,CA,1970-01-01 00:00:00,2006-12-31 00:00:00,39.091,-120.95,True,True,basins,1970-01-01 00:00:00,2006-12-31 00:00:00
041916,COLGATE P H,CA,1970-01-01 00:00:00,2006-12-31 00:00:00,39.331,-121.19,True,True,basins,1970-01-01 00:00:00,2006-12-31 00:00:00
041948,COLUSA 2 SSW,CA,1970-01-01 00:00:00,2006-12-31 00:00:00,39.181,-122.03,True,True,basins,1970-01-01 00:00:00,2006-12-31 00:00:00
041964,CONCORD BUCHANAN FIELD,CA,2000-09-01 00:00:00,2006-12-31 00:00:00,37.992,-122.06,True,True,basins,2000-09-01 00:00:00,2006-12-31 00:00:00
041967,CONCORD WASTEWATER PLANT,CA,1991-08-31 00:00:00,2006-12-31 00:00:00,37.983,-122.07,True,True,basins,1991-08-31 00:00:00,2006-12-31 00:00:00
041990,COPCO NO 1 DAM,CA,1970-01-01 00:00:00,2006-12-31 00:00:00,41.98,-122.34,True,True,basins,1970-01-01 00:00:00,2006-12-31 00:00:00
042081,COVELO,CA,1970-01-01 00:00:00,2006-12-31 00:00:00,39.816,-123.24,True,True,basins,1970-01-01 00:00:00,2006-12-31 00:00:00
042090,COVINA CITY YRD FC387B,CA,1970-01-01 00:00:00,2006-12-31 00:00:00,34.092,-117.88,True,True,basins,1970-01-01 00:00:00,2006-12-31 00:00:00
042147,CRESCENT CITY 3 NNW,CA,1970-01-01 00:00:00,2006-12-31 00:00:00,41.796,-124.21,True,True,basins,1970-01-01 00:00:00,2006-12-31 00:00:00
042148,CRESCENT CITY 7 ENE,CA,1970-01-01 00:00:00,2002-05-21 00:00:00,41.794,-124.08,True,True,basins,1970-01-01 00:00:00,2002-05-21 00:00:00
042198,CRYSTAL LAKE FC238C,CA,1970-01-01 00:00:00,2005-09-30 00:00:00,34.318,-117.84,True,True,basins,1970-01-01 00:00:00,2005-09-30 00:00:00
042214,CULVER CITY,CA,1970-01-01 00:00:00,2006-12-31 00:00:00,34.005,-118.41,True,True,basins,1970-01-01 00:00:00,2006-12-31 00:00:00
042257,DAGGETT AP,CA,2000-08-29 00:00:00,2005-12-31 00:00:00,34.854,-116.79,True,True,basins,2000-08-29 00:00:00,2005-12-31 00:00:00
042319,DEATH VALLEY,CA,1970-01-01 00:00:00,2006-12-31 00:00:00,36.462,-116.87,True,True,basins,1970-01-01 00:00:00,2006-12-31 00:00:00
042327,DEEP CANYON LABORATORY,CA,1970-01-01 00:00:00,2006-12-31 00:00:00,33.651,-116.38,True,True,basins,1970-01-01 00:00:00,2006-12-31 00:00:00
042331,DEEP SPRINGS COLLEGE,CA,1970-01-01 00:00:00,2006-12-31 00:00:00,37.374,-117.98,True,True,basins,1970-01-01 00:00:00,2006-12-31 00:00:00
042346,DELANO,CA,1970-01-01 00:00:00,2006-12-31 00:00:00,35.77,-119.24,True,True,basins,1970-01-01 00:00:00,2006-12-31 00:00:00
042402,DE SABLA,CA,1970-01-01 00:00:00,2006-12-31 00:00:00,39.874,-121.62,True,True,basins,1970-01-01 00:00:00,2006-12-31 00:00:00
042456,DOBBINS 1 S,CA,1970-05-31 00:00:00,2006-12-31 00:00:00,39.357,-121.20,True,True,basins,1970-05-31 00:00:00,2006-12-31 00:00:00
042467,DONNER MEMORIAL ST PARK,CA,1970-01-01 00:00:00,2006-12-31 00:00:00,39.324,-120.23,True,True,basins,1970-01-01 00:00:00,2006-12-31 00:00:00
042494,DOWNEY FIRE STN FC107C,CA,1970-01-01 00:00:00,2005-10-31 00:00:00,33.93,-118.15,True,True,basins,1970-01-01 00:00:00,2005-10-31 00:00:00
042504,DOYLE,CA,1970-01-01 00:00:00,2006-12-31 00:00:00,40.024,-120.10,True,True,basins,1970-01-01 00:00:00,2006-12-31 00:00:00
042506,DOYLE 4 SSE,CA,1970-01-01 00:00:00,2006-12-31 00:00:00,39.972,-120.08,True,True,basins,1970-01-01 00:00:00,2006-12-31 00:00:00
042574,DUNSMUIR TREATMENT PLANT,CA,1978-06-30 00:00:00,2006-12-31 00:00:00,41.183,-122.27,True,True,basins,1978-06-30 00:00:00,2006-12-31 00:00:00
042598,EAGLE MOUNTAIN,CA,1970-01-01 00:00:00,2006-12-31 00:00:00,33.809,-115.45,True,True,basins,1970-01-01 00:00:00,2006-12-31 00:00:00
042640,EAST PARK RESERVOIR,CA,1970-01-01 00:00:00,2003-08-31 00:00:00,39.359,-122.52,True,True,basins,1970-01-01 00:00:00,2003-08-31 00:00:00
042706,EL CAJON,CA,1979-10-31 00:00:00,2006-11-30 00:00:00,32.814,-116.97,True,True,basins,1979-10-31 00:00:00,2006-11-30 00:00:00
042713,EL CENTRO 2 SSW,CA,1970-01-01 00:00:00,2006-03-31 00:00:00,32.767,-115.56,True,True,basins,1970-01-01 00:00:00,2006-03-31 00:00:00
042756,ELLERY LAKE,CA,1970-01-01 00:00:00,2005-01-31 00:00:00,37.936,-119.23,True,True,basins,1970-01-01 00:00:00,2005-01-31 00:00:00
042771,EL MIRAGE,CA,1971-04-30 00:00:00,2006-12-31 00:00:00,34.589,-117.63,True,True,basins,1971-04-30 00:00:00,2006-12-31 00:00:00
042805,ELSINORE,CA,1970-01-01 00:00:00,2006-12-31 00:00:00,33.669,-117.33,True,True,basins,1970-01-01 00:00:00,2006-12-31 00:00:00
042863,ESCONDIDO NO 2,CA,1979-04-30 00:00:00,2005-12-30 00:00:00,33.121,-117.09,True,True,basins,1979-04-30 00:00:00,2005-12-30 00:00:00
042895,ETIWANDA,CA,1970-01-01 00:00:00,2001-06-30 00:00:00,34.132,-117.52,True,True,basins,1970-01-01 00:00:00,2001-06-30 00:00:00
042910,EUREKA WFO WOODLEY IS,CA,1970-01-01 00:00:00,2006-12-31 00:00:00,40.811,-124.16,True,True,basins,1970-01-01 00:00:00,2006-12-31 00:00:00
042920,EXCHEQUER DAM,CA,1970-01-01 00:00:00,2006-12-31 00:00:00,37.585,-120.27,True,True,basins,1970-01-01 00:00:00,2006-12-31 00:00:00
042934,FAIRFIELD,CA,1970-01-01 00:00:00,2006-12-31 00:00:00,38.274,-122.07,True,True,basins,1970-01-01 00:00:00,2006-12-31 00:00:00
042941,FAIRMONT,CA,1970-01-01 00:00:00,2006-12-31 00:00:00,34.704,-118.43,True,True,basins,1970-01-01 00:00:00,2006-12-31 00:00:00
043004,FELTON,CA,2000-08-31 00:00:00,2006-12-31 00:00:00,37.051,-122.07,True,True,basins,2000-08-31 00:00:00,2006-12-31 00:00:00
043048,FIGUEROA MOUNTAIN,CA,1970-01-01 00:00:00,2006-12-31 00:00:00,34.735,-120.01,True,True,basins,1970-01-01 00:00:00,2006-12-31 00:00:00
043083,FIVE POINTS 5 SSW,CA,1970-01-01 00:00:00,2006-12-31 00:00:00,36.364,-120.16,True,True,basins,1970-01-01 00:00:00,2006-12-31 00:00:00
043093,FLORENCE LAKE,CA,1970-01-01 00:00:00,2006-03-31 00:00:00,37.274,-118.97,True,True,basins,1970-01-01 00:00:00,2006-03-31 00:00:00
043134,FORESTHILL RANGER STN,CA,1970-01-01 00:00:00,2006-12-31 00:00:00,39.01,-120.85,True,True,basins,1970-01-01 00:00:00,2006-12-31 00:00:00
043157,FORT BIDWELL,CA,1970-01-01 00:00:00,2006-10-31 00:00:00,41.859,-120.15,True,True,basins,1970-01-01 00:00:00,2006-10-31 00:00:00
043191,FORT ROSS,CA,1970-01-01 00:00:00,2006-12-31 00:00:00,38.515,-123.24,True,True,basins,1970-01-01 00:00:00,2006-12-31 00:00:00
043244,FREMONT,CA,1996-05-31 00:00:00,2006-12-31 00:00:00,37.542,-122.02,True,True,basins,1996-05-31 00:00:00,2006-12-31 00:00:00
043256,FRESNO 5 NE,CA,1998-12-31 00:00:00,2006-12-31 00:00:00,36.752,-119.70,True,True,basins,1998-12-31 00:00:00,2006-12-31 00:00:00
043257,FRESNO YOSEMITE INTL,CA,1970-01-01 00:00:00,2006-12-31 00:00:00,36.78,-119.72,True,True,basins,1970-01-01 00:00:00,2006-12-31 00:00:00
043261,FRIANT GOVERNMENT CAMP,CA,1970-01-01 00:00:00,2006-12-31 00:00:00,36.997,-119.71,True,True,basins,1970-01-01 00:00:00,2006-12-31 00:00:00
043285,FULLERTON DAM,CA,1970-01-01 00:00:00,2006-12-31 00:00:00,33.896,-117.89,True,True,basins,1970-01-01 00:00:00,2006-12-31 00:00:00
043369,GEM LAKE,CA,1970-01-01 00:00:00,2004-09-30 00:00:00,37.752,-119.14,True,True,basins,1970-01-01 00:00:00,2004-09-30 00:00:00
043392,GETTY CENTER,CA,2000-01-01 00:00:00,2006-12-31 00:00:00,34.087,-118.48,True,True,basins,2000-01-01 00:00:00,2006-12-31 00:00:00
043452,GLENDORA FC 287B,CA,1970-01-01 00:00:00,2006-12-31 00:00:00,34.146,-117.85,True,True,basins,1970-01-01 00:00:00,2006-12-31 00:00:00
043463,GLENNVILLE,CA,1970-01-01 00:00:00,2006-12-31 00:00:00,35.727,-118.70,True,True,basins,1970-01-01 00:00:00,2006-12-31 00:00:00
043465,GLENNVILLE FULTON R S,CA,1970-01-01 00:00:00,2006-03-31 00:00:00,35.725,-118.68,True,True,basins,1970-01-01 00:00:00,2006-03-31 00:00:00
043491,GOLD RUN 2 SW,CA,1970-01-01 00:00:00,2006-12-31 00:00:00,39.165,-120.86,True,True,basins,1970-01-01 00:00:00,2006-12-31 00:00:00
043498,GOLDSTONE ECHO NO 2,CA,1973-11-30 00:00:00,2006-07-31 00:00:00,35.281,-116.78,True,True,basins,1973-11-30 00:00:00,2006-07-31 00:00:00
043578,GRATON,CA,1970-01-01 00:00:00,2006-12-31 00:00:00,38.431,-122.86,True,True,basins,1970-01-01 00:00:00,2006-12-31 00:00:00
043614,GREENVIEW,CA,1970-01-01 00:00:00,2005-12-30 00:00:00,41.552,-122.92,True,True,basins,1970-01-01 00:00:00,2005-12-30 00:00:00
043621,GREENVILLE R S,CA,1970-01-01 00:00:00,2005-10-31 00:00:00,40.141,-120.94,True,True,basins,1970-01-01 00:00:00,2005-10-31 00:00:00
043672,GROVELAND R S,CA,1970-01-01 00:00:00,2006-12-31 00:00:00,37.823,-120.10,True,True,basins,1970-01-01 00:00:00,2006-12-31 00:00:00
043710,HAIWEE,CA,1970-01-01 00:00:00,2006-12-31 00:00:00,36.139,-117.95,True,True,basins,1970-01-01 00:00:00,2006-12-31 00:00:00
043714,HALF MOON BAY,CA,1970-01-01 00:00:00,2006-12-31 00:00:00,37.472,-122.44,True,True,basins,1970-01-01 00:00:00,2006-12-31 00:00:00
043747,HANFORD 1 S,CA,1970-01-01 00:00:00,2006-12-31 00:00:00,36.322,-119.64,True,True,basins,1970-01-01 00:00:00,2006-12-31 00:00:00
043751,HANSEN DAM,CA,1970-01-01 00:00:00,2006-12-31 00:00:00,34.261,-118.39,True,True,basins,1970-01-01 00:00:00,2006-12-31 00:00:00
043800,HARRY ENGLEBRIGHT DAM,CA,1970-01-01 00:00:00,2006-12-31 00:00:00,39.237,-121.27,True,True,basins,1970-01-01 00:00:00,2006-12-31 00:00:00
043824,HAT CREEK,CA,1970-01-01 00:00:00,2006-12-31 00:00:00,40.932,-121.54,True,True,basins,1970-01-01 00:00:00,2006-12-31 00:00:00
043855,HAYFIELD PUMPING PLANT,CA,1970-01-01 00:00:00,2006-12-31 00:00:00,33.704,-115.63,True,True,basins,1970-01-01 00:00:00,2006-12-31 00:00:00
043859,HAYFORK 2 W,CA,1970-01-01 00:00:00,2005-09-30 00:00:00,40.553,-123.21,True,True,basins,1970-01-01 00:00:00,2005-09-30 00:00:00
043861,HAYWARD AIR TERMINAL,CA,2000-09-01 00:00:00,2006-12-31 00:00:00,37.654,-122.11,True,True,basins,2000-09-01 00:00:00,2006-12-31 00:00:00
043875,HEALDSBURG,CA,1970-01-01 00:00:00,2006-12-31 00:00:00,38.618,-122.87,True,True,basins,1970-01-01 00:00:00,2006-12-31 00:00:00
043882,HEARST CASTLE,CA,1999-11-30 00:00:00,2006-12-31 00:00:00,35.684,-121.17,True,True,basins,1999-11-30 00:00:00,2006-12-31 00:00:00
043896,HEMET,CA,1970-01-01 00:00:00,2006-12-31 00:00:00,33.746,-116.94,True,True,basins,1970-01-01 00:00:00,2006-12-31 00:00:00
044176,HUNTINGTON LAKE,CA,1970-01-01 00:00:00,2006-03-31 00:00:00,37.228,-119.22,True,True,basins,1970-01-01 00:00:00,2006-03-31 00:00:00
044181,HURKEY CREEK PARK,CA,1970-01-01 00:00:00,2006-12-31 00:00:00,33.683,-116.68,True,True,basins,1970-01-01 00:00:00,2006-12-31 00:00:00
044211,IDYLLWILD FIRE DEPT,CA,1970-01-01 00:00:00,2006-12-31 00:00:00,33.757,-116.71,True,True,basins,1970-01-01 00:00:00,2006-12-31 00:00:00
044223,IMPERIAL,CA,1970-01-01 00:00:00,2006-12-31 00:00:00,32.849,-115.57,True,True,basins,1970-01-01 00:00:00,2006-12-31 00:00:00
044259,INDIO FIRE STATION,CA,1970-01-01 00:00:00,2006-12-31 00:00:00,33.709,-116.22,True,True,basins,1970-01-01 00:00:00,2006-12-31 00:00:00
044278,INYOKERN,CA,1970-01-01 00:00:00,2006-12-31 00:00:00,35.652,-117.82,True,True,basins,1970-01-01 00:00:00,2006-12-31 00:00:00
044288,IOWA HILL,CA,1970-01-01 00:00:00,2006-12-31 00:00:00,39.118,-120.83,True,True,basins,1970-01-01 00:00:00,2006-12-31 00:00:00
044297,IRON MOUNTAIN,CA,1970-01-01 00:00:00,2006-12-31 00:00:00,34.147,-115.12,True,True,basins,1970-01-01 00:00:00,2006-12-31 00:00:00
044374,JESS VALLEY,CA,1970-01-01 00:00:00,2006-12-31 00:00:00,41.268,-120.29,True,True,basins,1970-01-01 00:00:00,2006-12-31 00:00:00
044422,JUNCAL DAM,CA,1970-01-01 00:00:00,2006-12-31 00:00:00,34.491,-119.51,True,True,basins,1970-01-01 00:00:00,2006-12-31 00:00:00
044484,KELSEY 1 N,CA,1996-01-01 00:00:00,2006-12-31 00:00:00,38.809,-120.82,True,True,basins,1996-01-01 00:00:00,2006-12-31 00:00:00
044500,KENTFIELD,CA,1970-01-01 00:00:00,2006-12-31 00:00:00,37.957,-122.54,True,True,basins,1970-01-01 00:00:00,2006-12-31 00:00:00
044523,KERN RIVER PH 3,CA,1970-01-01 00:00:00,2006-12-31 00:00:00,35.783,-118.44,True,True,basins,1970-01-01 00:00:00,2006-12-31 00:00:00
044536,KETTLEMAN STATION,CA,1970-01-01 00:00:00,2001-09-30 00:00:00,36.072,-120.09,True,True,basins,1970-01-01 00:00:00,2001-09-30 00:00:00
044577,KLAMATH,CA,1970-01-01 00:00:00,2006-03-31 00:00:00,41.579,-124.07,True,True,basins,1970-01-01 00:00:00,2006-03-31 00:00:00
044628,LA CRESCENTA FC 251C,CA,1970-01-01 00:00:00,2006-12-31 00:00:00,34.222,-118.24,True,True,basins,1970-01-01 00:00:00,2006-12-31 00:00:00
044647,LAGUNA BEACH,CA,1970-01-01 00:00:00,2006-12-31 00:00:00,33.547,-117.78,True,True,basins,1970-01-01 00:00:00,2006-12-31 00:00:00
044650,LAGUNA BEACH NO 2,CA,1970-01-01 00:00:00,2006-12-31 00:00:00,33.557,-117.80,True,True,basins,1970-01-01 00:00:00,2006-12-31 00:00:00
044671,LAKE ARROWHEAD,CA,1970-01-01 00:00:00,2006-12-31 00:00:00,34.247,-117.19,True,True,basins,1970-01-01 00:00:00,2006-12-31 00:00:00
044683,LAKEHEAD,CA,1998-05-31 00:00:00,2006-12-31 00:00:00,40.899,-122.39,True,True,basins,1998-05-31 00:00:00,2006-12-31 00:00:00
044701,LAKEPORT,CA,1970-01-01 00:00:00,2001-06-30 00:00:00,39.033,-122.92,True,True,basins,1970-01-01 00:00:00,2001-06-30 00:00:00
044705,LAKE SABRINA,CA,1974-12-31 00:00:00,2004-11-30 00:00:00,37.213,-118.61,True,True,basins,1974-12-31 00:00:00,2004-11-30 00:00:00
044710,LAKESIDE 2 E,CA,1970-01-01 00:00:00,2006-12-31 00:00:00,32.854,-116.89,True,True,basins,1970-01-01 00:00:00,2006-12-31 00:00:00
044713,LAKE SPAULDING,CA,1970-01-01 00:00:00,2003-05-31 00:00:00,39.318,-120.64,True,True,basins,1970-01-01 00:00:00,2003-05-31 00:00:00
044735,LA MESA,CA,1970-01-01 00:00:00,2006-02-28 00:00:00,32.768,-117.02,True,True,basins,1970-01-01 00:00:00,2006-02-28 00:00:00
044749,LANCASTER ATC,CA,2001-02-01 00:00:00,2006-12-31 00:00:00,34.741,-118.21,True,True,basins,2001-02-01 00:00:00,2006-12-31 00:00:00
044838,LAVA BEDS NAT MONUMENT,CA,1970-01-01 00:00:00,2006-12-31 00:00:00,41.74,-121.51,True,True,basins,1970-01-01 00:00:00,2006-12-31 00:00:00
044863,LEBEC,CA,1970-01-01 00:00:00,2006-12-31 00:00:00,34.833,-118.86,True,True,basins,1970-01-01 00:00:00,2006-12-31 00:00:00
044881,LEE VINING,CA,1988-04-30 00:00:00,2006-12-31 00:00:00,37.957,-119.12,True,True,basins,1988-04-30 00:00:00,2006-12-31 00:00:00
044890,LEMON COVE,CA,1970-01-01 00:00:00,2006-12-31 00:00:00,36.382,-119.03,True,True,basins,1970-01-01 00:00:00,2006-12-31 00:00:00
044957,LINDSAY,CA,1970-01-01 00:00:00,2006-12-31 00:00:00,36.203,-119.06,True,True,basins,1970-01-01 00:00:00,2006-12-31 00:00:00
044995,LIVERMORE MUNICIPAL AP,CA,2000-09-01 00:00:00,2006-12-31 00:00:00,37.698,-121.81,True,True,basins,2000-09-01 00:00:00,2006-12-31 00:00:00
044997,LIVERMORE,CA,1970-01-01 00:00:00,2006-12-31 00:00:00,37.695,-121.78,True,True,basins,1970-01-01 00:00:00,2006-12-31 00:00:00
045026,LODGEPOLE,CA,1970-01-01 00:00:00,2006-12-31 00:00:00,36.604,-118.73,True,True,basins,1970-01-01 00:00:00,2006-12-31 00:00:00
045032,LODI,CA,1970-01-01 00:00:00,2006-12-31 00:00:00,38.106,-121.29,True,True,basins,1970-01-01 00:00:00,2006-12-31 00:00:00
045064,LOMPOC,CA,1970-01-01 00:00:00,2006-12-31 00:00:00,34.654,-120.45,True,True,basins,1970-01-01 00:00:00,2006-12-31 00:00:00
045085,LONG BEACH DAUGHERTY AP,CA,1970-01-01 00:00:00,2006-12-31 00:00:00,33.812,-118.15,True,True,basins,1970-01-01 00:00:00,2006-12-31 00:00:00
045107,LOS ALAMOS,CA,1970-01-01 00:00:00,2006-12-31 00:00:00,34.746,-120.28,True,True,basins,1970-01-01 00:00:00,2006-12-31 00:00:00
045114,LOS ANGELES INTL AP,CA,1970-01-01 00:00:00,2006-12-31 00:00:00,33.938,-118.39,True,True,basins,1970-01-01 00:00:00,2006-12-31 00:00:00
045115,LOS ANGELES DOWNTOWN/USC,CA,1970-01-01 00:00:00,2006-12-31 00:00:00,34.051,-118.24,True,True,basins,1970-01-01 00:00:00,2006-12-31 00:00:00
045118,LOS BANOS,CA,1970-01-01 00:00:00,2006-12-31 00:00:00,37.053,-120.87,True,True,basins,1970-01-01 00:00:00,2006-12-31 00:00:00
045119,LOS BANOS ARBURUA RCH,CA,1970-01-01 00:00:00,2006-12-31 00:00:00,36.881,-120.94,True,True,basins,1970-01-01 00:00:00,2006-12-31 00:00:00
045120,LOS BANOS DET RESV,CA,1970-01-01 00:00:00,2006-12-31 00:00:00,36.99,-120.93,True,True,basins,1970-01-01 00:00:00,2006-12-31 00:00:00
045123,LOS GATOS,CA,1970-01-01 00:00:00,2006-12-31 00:00:00,37.232,-121.96,True,True,basins,1970-01-01 00:00:00,2006-12-31 00:00:00
045147,LOS PRIETOS R.S.,CA,1970-01-01 00:00:00,2004-10-31 00:00:00,34.544,-119.79,True,True,basins,1970-01-01 00:00:00,2004-10-31 00:00:00
045151,LOST HILLS,CA,1970-01-01 00:00:00,2003-03-31 00:00:00,35.617,-119.69,True,True,basins,1970-01-01 00:00:00,2003-03-31 00:00:00
045218,LYTLE CREEK R S,CA,1970-01-01 00:00:00,2006-03-31 00:00:00,34.238,-117.47,True,True,basins,1970-01-01 00:00:00,2006-03-31 00:00:00
045233,MADERA,CA,1970-01-01 00:00:00,2006-12-31 00:00:00,36.954,-120.04,True,True,basins,1970-01-01 00:00:00,2006-12-31 00:00:00
045280,MAMMOTH LAKES R.S.,CA,1993-12-31 00:00:00,2006-12-31 00:00:00,37.648,-118.96,True,True,basins,1993-12-31 00:00:00,2006-12-31 00:00:00
045311,MANZANITA LAKE,CA,1970-01-01 00:00:00,2006-12-31 00:00:00,40.542,-121.58,True,True,basins,1970-01-01 00:00:00,2006-12-31 00:00:00
045356,MARKLEEVILLE,CA,1970-01-01 00:00:00,2004-05-31 00:00:00,38.692,-119.78,True,True,basins,1970-01-01 00:00:00,2004-05-31 00:00:00
045360,MARKLEY COVE,CA,1970-02-28 00:00:00,2006-12-31 00:00:00,38.494,-122.13,True,True,basins,1970-02-28 00:00:00,2006-12-31 00:00:00
045371,MARTINEZ 2 S,CA,1970-01-01 00:00:00,2005-09-30 00:00:00,37.97,-122.13,True,True,basins,1970-01-01 00:00:00,2005-09-30 00:00:00
045378,MARTINEZ WATER PLANT,CA,1970-01-31 00:00:00,2006-12-31 00:00:00,38.013,-122.11,True,True,basins,1970-01-31 00:00:00,2006-12-31 00:00:00
045385,MARYSVILLE,CA,1970-01-01 00:00:00,2006-12-31 00:00:00,39.146,-121.59,True,True,basins,1970-01-01 00:00:00,2006-12-31 00:00:00
045400,MATHER,CA,1970-01-01 00:00:00,2006-12-31 00:00:00,37.881,-119.86,True,True,basins,1970-01-01 00:00:00,2006-12-31 00:00:00
045417,MATILIJA DAM,CA,1970-01-01 00:00:00,2006-12-31 00:00:00,34.483,-119.30,True,True,basins,1970-01-01 00:00:00,2006-12-31 00:00:00
045502,MECCA FIRE STATION,CA,1970-01-01 00:00:00,2006-12-31 00:00:00,33.571,-116.08,True,True,basins,1970-01-01 00:00:00,2006-12-31 00:00:00
045532,MERCED,CA,1970-01-01 00:00:00,2006-12-31 00:00:00,37.286,-120.51,True,True,basins,1970-01-01 00:00:00,2006-12-31 00:00:00
045535,MERCED 2,CA,1970-01-01 00:00:00,2006-03-31 00:00:00,37.305,-120.49,True,True,basins,1970-01-01 00:00:00,2006-03-31 00:00:00
045598,MIDDLETOWN 4 SE,CA,1970-01-01 00:00:00,2005-12-31 00:00:00,38.725,-122.55,True,True,basins,1970-01-01 00:00:00,2005-12-31 00:00:00
045632,MILL CREEK INTAKE,CA,1970-01-01 00:00:00,2005-11-30 00:00:00,34.091,-116.94,True,True,basins,1970-01-01 00:00:00,2005-11-30 00:00:00
045637,MILL CREEK SUMMIT,CA,1972-01-01 00:00:00,2006-03-31 00:00:00,34.383,-118.08,True,True,basins,1972-01-01 00:00:00,2006-03-31 00:00:00
045669,MILO 5 NE,CA,1970-01-01 00:00:00,2006-03-31 00:00:00,36.267,-118.77,True,True,basins,1970-01-01 00:00:00,2006-03-31 00:00:00
045721,MITCHELL CAVERNS,CA,1970-01-01 00:00:00,2006-12-31 00:00:00,34.944,-115.55,True,True,basins,1970-01-01 00:00:00,2006-12-31 00:00:00
045738,MODESTO AP,CA,1970-01-01 00:00:00,2006-12-31 00:00:00,37.624,-120.95,True,True,basins,1970-01-01 00:00:00,2006-12-31 00:00:00
045790,MONTEBELLO,CA,1978-12-31 00:00:00,2006-10-31 00:00:00,34.019,-118.10,True,True,basins,1978-12-31 00:00:00,2006-10-31 00:00:00
045795,MONTEREY,CA,1970-01-01 00:00:00,2006-12-31 00:00:00,36.59,-121.91,True,True,basins,1970-01-01 00:00:00,2006-12-31 00:00:00
045840,MORENA DAM,CA,1970-01-01 00:00:00,2006-03-31 00:00:00,32.682,-116.52,True,True,basins,1970-01-01 00:00:00,2006-03-31 00:00:00
045866,MORRO BAY FIRE DEPT,CA,1970-01-01 00:00:00,2006-12-31 00:00:00,35.367,-120.84,True,True,basins,1970-01-01 00:00:00,2006-12-31 00:00:00
045890,MOUNTAIN PASS,CA,1970-01-01 00:00:00,2006-12-31 00:00:00,35.471,-115.54,True,True,basins,1970-01-01 00:00:00,2006-12-31 00:00:00
045915,MOUNT DIABLO JUNCTION,CA,1970-01-01 00:00:00,2006-12-31 00:00:00,37.879,-121.93,True,True,basins,1970-01-01 00:00:00,2006-12-31 00:00:00
045933,MOUNT HAMILTON,CA,1970-01-01 00:00:00,2006-12-31 00:00:00,37.344,-121.64,True,True,basins,1970-01-01 00:00:00,2006-12-31 00:00:00
045941,MOUNT HEBRON RNG STN,CA,1970-01-01 00:00:00,2006-12-31 00:00:00,41.784,-122.04,True,True,basins,1970-01-01 00:00:00,2006-12-31 00:00:00
046027,MUIR WOODS,CA,1970-01-01 00:00:00,2006-12-31 00:00:00,37.898,-122.57,True,True,basins,1970-01-01 00:00:00,2006-12-31 00:00:00
046066,NAPA COUNTY AP,CA,2000-09-01 00:00:00,2006-12-31 00:00:00,38.21,-122.28,True,True,basins,2000-09-01 00:00:00,2006-12-31 00:00:00
046074,NAPA STATE HOSPITAL,CA,1970-01-01 00:00:00,2006-12-31 00:00:00,38.278,-122.26,True,True,basins,1970-01-01 00:00:00,2006-12-31 00:00:00
046118,NEEDLES AP,CA,1970-01-01 00:00:00,2006-12-31 00:00:00,34.768,-114.62,True,True,basins,1970-01-01 00:00:00,2006-12-31 00:00:00
046136,NEVADA CITY,CA,1970-01-01 00:00:00,2006-12-31 00:00:00,39.247,-121.00,True,True,basins,1970-01-01 00:00:00,2006-12-31 00:00:00
046144,NEWARK,CA,1970-01-01 00:00:00,2006-12-31 00:00:00,37.515,-122.03,True,True,basins,1970-01-01 00:00:00,2006-12-31 00:00:00
046161,NEWHALL 5NW,CA,1997-05-01 00:00:00,2006-12-31 00:00:00,34.393,-118.59,True,True,basins,1997-05-01 00:00:00,2006-12-31 00:00:00
046162,NEWHALL S FC32CE,CA,1970-01-01 00:00:00,2006-12-31 00:00:00,34.387,-118.53,True,True,basins,1970-01-01 00:00:00,2006-12-31 00:00:00
046168,NEWMAN,CA,1970-01-01 00:00:00,2006-12-31 00:00:00,37.281,-121.02,True,True,basins,1970-01-01 00:00:00,2006-12-31 00:00:00
046175,NEWPORT BEACH HARBOR,CA,1970-01-01 00:00:00,2006-12-31 00:00:00,33.603,-117.88,True,True,basins,1970-01-01 00:00:00,2006-12-31 00:00:00
046194,NICOLAUS 2,CA,1970-01-01 00:00:00,2006-12-31 00:00:00,38.926,-121.54,True,True,basins,1970-01-01 00:00:00,2006-12-31 00:00:00
046197,NILAND,CA,1970-01-01 00:00:00,2006-10-31 00:00:00,33.278,-115.52,True,True,basins,1970-01-01 00:00:00,2006-10-31 00:00:00
046252,NORTH FORK RS,CA,1970-01-01 00:00:00,2006-12-31 00:00:00,37.231,-119.51,True,True,basins,1970-01-01 00:00:00,2006-12-31 00:00:00
046263,NORTHRIDGE CAL STATE,CA,1998-06-01 00:00:00,2006-10-31 00:00:00,34.238,-118.53,True,True,basins,1998-06-01 00:00:00,2006-10-31 00:00:00
046319,OAK GROVE RS,CA,1978-05-01 00:00:00,2006-12-31 00:00:00,33.386,-116.79,True,True,basins,1978-05-01 00:00:00,2006-12-31 00:00:00
046336,OAKLAND MUSEUM,CA,1970-09-30 00:00:00,2006-12-31 00:00:00,37.798,-122.26,True,True,basins,1970-09-30 00:00:00,2006-12-31 00:00:00
046370,OCCIDENTAL,CA,1970-01-01 00:00:00,2006-12-31 00:00:00,38.386,-122.97,True,True,basins,1970-01-01 00:00:00,2006-12-31 00:00:00
046377,OCEANSIDE MARINA,CA,1970-01-01 00:00:00,2006-12-31 00:00:00,33.21,-117.39,True,True,basins,1970-01-01 00:00:00,2006-12-31 00:00:00
046379,OCEANSIDE PUMP PLANT,CA,1970-01-01 00:00:00,2006-03-31 00:00:00,33.217,-117.35,True,True,basins,1970-01-01 00:00:00,2006-03-31 00:00:00
046390,OCOTILLO 2,CA,1971-05-31 00:00:00,2003-02-28 00:00:00,32.746,-116.00,True,True,basins,1971-05-31 00:00:00,2003-02-28 00:00:00
046399,OJAI,CA,1970-01-01 00:00:00,2006-12-31 00:00:00,34.448,-119.23,True,True,basins,1970-01-01 00:00:00,2006-12-31 00:00:00
046473,ORANGE COUNTY RESERVOIR,CA,1970-01-01 00:00:00,2006-12-31 00:00:00,33.938,-117.89,True,True,basins,1970-01-01 00:00:00,2006-12-31 00:00:00
046498,ORICK PRAIRIE CREEK PARK,CA,1970-01-01 00:00:00,2006-12-31 00:00:00,41.362,-124.02,True,True,basins,1970-01-01 00:00:00,2006-12-31 00:00:00
046506,ORLAND,CA,1970-01-01 00:00:00,2006-12-31 00:00:00,39.746,-122.20,True,True,basins,1970-01-01 00:00:00,2006-12-31 00:00:00
046508,ORLEANS,CA,1970-01-01 00:00:00,2006-12-31 00:00:00,41.309,-123.53,True,True,basins,1970-01-01 00:00:00,2006-12-31 00:00:00
046569,OXNARD,CA,1970-01-01 00:00:00,2002-07-25 00:00:00,34.198,-119.18,True,True,basins,1970-01-01 00:00:00,2002-07-25 00:00:00
046572,OXNARD WSFO,CA,1998-05-01 00:00:00,2006-12-31 00:00:00,34.211,-119.14,True,True,basins,1998-05-01 00:00:00,2006-12-31 00:00:00
046597,PACIFIC HOUSE,CA,1970-01-01 00:00:00,2006-12-31 00:00:00,38.758,-120.50,True,True,basins,1970-01-01 00:00:00,2006-12-31 00:00:00
046598,PACIFICA 2 S,CA,2000-10-31 00:00:00,2006-12-31 00:00:00,37.611,-122.48,True,True,basins,2000-10-31 00:00:00,2006-12-31 00:00:00
046599,PACIFICA 4 SSE,CA,1983-10-31 00:00:00,2006-12-31 00:00:00,37.592,-122.47,True,True,basins,1983-10-31 00:00:00,2006-12-31 00:00:00
046602,PACOIMA DAM FC 33 A-E,CA,1970-01-01 00:00:00,2006-12-31 00:00:00,34.333,-118.40,True,True,basins,1970-01-01 00:00:00,2006-12-31 00:00:00
046610,PAICINES 4 W,CA,1970-01-01 00:00:00,2006-12-31 00:00:00,36.716,-121.35,True,True,basins,1970-01-01 00:00:00,2006-12-31 00:00:00
046635,PALM SPRINGS,CA,1970-01-01 00:00:00,2006-12-31 00:00:00,33.827,-116.51,True,True,basins,1970-01-01 00:00:00,2006-12-31 00:00:00
046663,PALOS VERDES ES FC43D,CA,1970-01-01 00:00:00,2006-12-31 00:00:00,33.80,-118.39,True,True,basins,1970-01-01 00:00:00,2006-12-31 00:00:00
046675,PANOCHE 2 W,CA,1970-01-01 00:00:00,2005-07-31 00:00:00,36.607,-120.88,True,True,basins,1970-01-01 00:00:00,2005-07-31 00:00:00
046685,PARADISE,CA,1970-01-01 00:00:00,2006-12-31 00:00:00,39.754,-121.62,True,True,basins,1970-01-01 00:00:00,2006-12-31 00:00:00
046699,PARKER RESERVOIR,CA,1970-01-01 00:00:00,2006-12-31 00:00:00,34.29,-114.17,True,True,basins,1970-01-01 00:00:00,2006-12-31 00:00:00
046719,PASADENA,CA,1970-01-01 00:00:00,2006-12-31 00:00:00,34.148,-118.14,True,True,basins,1970-01-01 00:00:00,2006-12-31 00:00:00
046742,PASO ROBLES MUNI AP,CA,1970-01-01 00:00:00,2006-12-31 00:00:00,35.67,-120.63,True,True,basins,1970-01-01 00:00:00,2006-12-31 00:00:00
046773,PEARBLOSSOM,CA,1985-05-31 00:00:00,2006-12-31 00:00:00,34.502,-117.90,True,True,basins,1985-05-31 00:00:00,2006-12-31 00:00:00
046896,PINE FLAT DAM,CA,1970-01-01 00:00:00,2006-12-31 00:00:00,36.824,-119.34,True,True,basins,1970-01-01 00:00:00,2006-12-31 00:00:00
046926,PINNACLES NATL MONUMENT,CA,1970-01-01 00:00:00,2006-12-31 00:00:00,36.482,-121.18,True,True,basins,1970-01-01 00:00:00,2006-12-31 00:00:00
046940,PIRU 2 ESE,CA,1970-01-01 00:00:00,2005-08-31 00:00:00,34.406,-118.76,True,True,basins,1970-01-01 00:00:00,2005-08-31 00:00:00
046942,PIRU TELEMETERING,CA,1971-06-01 00:00:00,2006-12-31 00:00:00,34.40,-118.70,True,True,basins,1971-06-01 00:00:00,2006-12-31 00:00:00
046943,PISMO BEACH,CA,1970-01-01 00:00:00,2005-11-30 00:00:00,35.16,-120.68,True,True,basins,1970-01-01 00:00:00,2005-11-30 00:00:00
046946,PIT RIVER P H 5,CA,1970-01-01 00:00:00,2006-12-31 00:00:00,40.987,-121.98,True,True,basins,1970-01-01 00:00:00,2006-12-31 00:00:00
046960,PLACERVILLE,CA,1970-01-01 00:00:00,2006-12-31 00:00:00,38.696,-120.82,True,True,basins,1970-01-01 00:00:00,2006-12-31 00:00:00
047050,POMONA FAIRPLEX,CA,1970-01-01 00:00:00,2006-12-31 00:00:00,34.081,-117.77,True,True,basins,1970-01-01 00:00:00,2006-12-31 00:00:00
047077,PORTERVILLE,CA,1970-01-01 00:00:00,2004-06-30 00:00:00,36.068,-119.02,True,True,basins,1970-01-01 00:00:00,2004-06-30 00:00:00
047109,POTTER VALLEY POWERHOUSE,CA,1970-01-01 00:00:00,2006-12-31 00:00:00,39.362,-123.13,True,True,basins,1970-01-01 00:00:00,2006-12-31 00:00:00
047111,POWAY VALLEY,CA,1970-01-01 00:00:00,2006-12-31 00:00:00,33.018,-117.03,True,True,basins,1970-01-01 00:00:00,2006-12-31 00:00:00
047123,PRADO DAM,CA,1970-01-01 00:00:00,2006-12-31 00:00:00,33.89,-117.65,True,True,basins,1970-01-01 00:00:00,2006-12-31 00:00:00
047150,PRIEST VALLEY,CA,1970-01-01 00:00:00,2006-12-31 00:00:00,36.188,-120.70,True,True,basins,1970-01-01 00:00:00,2006-12-31 00:00:00
047195,QUINCY,CA,1970-01-01 00:00:00,2006-12-31 00:00:00,39.937,-120.95,True,True,basins,1970-01-01 00:00:00,2006-12-31 00:00:00
047228,RAMONA FIRE DEPT,CA,1974-01-31 00:00:00,2006-12-31 00:00:00,33.011,-116.91,True,True,basins,1974-01-31 00:00:00,2006-12-31 00:00:00
047253,RANDSBURG,CA,1970-01-01 00:00:00,2006-12-31 00:00:00,35.369,-117.65,True,True,basins,1970-01-01 00:00:00,2006-12-31 00:00:00
047292,RED BLUFF MUNI AP,CA,1970-01-01 00:00:00,2006-12-31 00:00:00,40.152,-122.25,True,True,basins,1970-01-01 00:00:00,2006-12-31 00:00:00
047298,REDDING CDF,CA,1998-01-31 00:00:00,2006-12-31 00:00:00,40.519,-122.30,True,True,basins,1998-01-31 00:00:00,2006-12-31 00:00:00
047304,REDDING MUNICIPAL AP,CA,1986-11-01 00:00:00,2006-12-31 00:00:00,40.518,-122.30,True,True,basins,1986-11-01 00:00:00,2006-12-31 00:00:00
047306,REDLANDS,CA,1970-01-01 00:00:00,2006-12-31 00:00:00,34.053,-117.19,True,True,basins,1970-01-01 00:00:00,2006-12-31 00:00:00
047339,REDWOOD CITY,CA,1970-01-01 00:00:00,2005-10-31 00:00:00,37.477,-122.24,True,True,basins,1970-01-01 00:00:00,2005-10-31 00:00:00
047370,REPRESA,CA,1970-01-01 00:00:00,2006-12-31 00:00:00,38.694,-121.16,True,True,basins,1970-01-01 00:00:00,2006-12-31 00:00:00
047404,RICHARDSON GR ST PK,CA,1970-01-01 00:00:00,2006-12-31 00:00:00,40.026,-123.79,True,True,basins,1970-01-01 00:00:00,2006-12-31 00:00:00
047414,RICHMOND,CA,1970-01-01 00:00:00,2006-12-31 00:00:00,37.919,-122.38,True,True,basins,1970-01-01 00:00:00,2006-12-31 00:00:00
047470,RIVERSIDE FIRE STA 3,CA,1970-01-01 00:00:00,2006-12-31 00:00:00,33.951,-117.39,True,True,basins,1970-01-01 00:00:00,2006-12-31 00:00:00
047473,RIVERSIDE CITRUS EXP STN,CA,1970-01-01 00:00:00,2006-12-31 00:00:00,33.967,-117.36,True,True,basins,1970-01-01 00:00:00,2006-12-31 00:00:00
047581,ROUND MOUNTAIN,CA,1970-06-30 00:00:00,2006-12-31 00:00:00,40.796,-121.93,True,True,basins,1970-06-30 00:00:00,2006-12-31 00:00:00
047630,SACRAMENTO AP,CA,1970-01-01 00:00:00,2006-12-31 00:00:00,38.507,-121.50,True,True,basins,1970-01-01 00:00:00,2006-12-31 00:00:00
047633,SACRAMENTO 5 ESE,CA,1970-01-01 00:00:00,2006-03-31 00:00:00,38.556,-121.42,True,True,basins,1970-01-01 00:00:00,2006-03-31 00:00:00
047641,SAGEHEN CREEK,CA,1970-01-01 00:00:00,2006-10-31 00:00:00,39.432,-120.24,True,True,basins,1970-01-01 00:00:00,2006-10-31 00:00:00
047643,SAINT HELENA,CA,1970-01-01 00:00:00,2006-12-31 00:00:00,38.507,-122.47,True,True,basins,1970-01-01 00:00:00,2006-12-31 00:00:00
047668,SALINAS NO 2,CA,1970-01-01 00:00:00,2006-12-31 00:00:00,36.659,-121.67,True,True,basins,1970-01-01 00:00:00,2006-12-31 00:00:00
047672,SALINAS DAM,CA,1970-01-01 00:00:00,2006-12-31 00:00:00,35.337,-120.50,True,True,basins,1970-01-01 00:00:00,2006-12-31 00:00:00
047681,SALSIPUEDES GAGING STN,CA,1970-01-01 00:00:00,2006-12-31 00:00:00,34.586,-120.41,True,True,basins,1970-01-01 00:00:00,2006-12-31 00:00:00
047719,SAN BENITO,CA,1970-01-01 00:00:00,2001-07-31 00:00:00,36.509,-121.09,True,True,basins,1970-01-01 00:00:00,2001-07-31 00:00:00
047723,SAN BERNARDINO F S 226,CA,1970-01-01 00:00:00,2004-08-31 00:00:00,34.134,-117.25,True,True,basins,1970-01-01 00:00:00,2004-08-31 00:00:00
047731,SAN CLEMENTE DAM,CA,1970-01-01 00:00:00,2006-12-31 00:00:00,36.438,-121.71,True,True,basins,1970-01-01 00:00:00,2006-12-31 00:00:00
047740,SAN DIEGO WSO AIRPORT,CA,1970-01-01 00:00:00,2006-12-31 00:00:00,32.734,-117.18,True,True,basins,1970-01-01 00:00:00,2006-12-31 00:00:00
047741,SAN DIEGO SEAWORLD,CA,1999-04-30 00:00:00,2006-12-31 00:00:00,32.767,-117.23,True,True,basins,1999-04-30 00:00:00,2006-12-31 00:00:00
047749,SAN DIMAS FIRE FC 95,CA,1970-01-01 00:00:00,2006-12-31 00:00:00,34.107,-117.81,True,True,basins,1970-01-01 00:00:00,2006-12-31 00:00:00
047762,SAN FERNANDO PH 3,CA,1970-01-01 00:00:00,2006-12-31 00:00:00,34.313,-118.49,True,True,basins,1970-01-01 00:00:00,2006-12-31 00:00:00
047767,SAN FRANCISCO OCEANSIDE,CA,1970-01-01 00:00:00,2006-03-31 00:00:00,37.728,-122.50,True,True,basins,1970-01-01 00:00:00,2006-03-31 00:00:00
047769,SAN FRANCISCO WSO AP,CA,1970-01-01 00:00:00,2006-12-31 00:00:00,37.658,-122.44,True,True,basins,1970-01-01 00:00:00,2006-12-31 00:00:00
047772,SAN FRANCISCO DOWNTOWN,CA,1970-01-01 00:00:00,2006-03-31 00:00:00,37.769,-122.43,True,True,basins,1970-01-01 00:00:00,2006-03-31 00:00:00
047776,SAN GABRIEL CANYON PH,CA,1970-01-01 00:00:00,2006-12-31 00:00:00,34.155,-117.91,True,True,basins,1970-01-01 00:00:00,2006-12-31 00:00:00
047779,SAN GABRIEL DAM FC425B,CA,1970-01-01 00:00:00,2006-03-31 00:00:00,34.205,-117.86,True,True,basins,1970-01-01 00:00:00,2006-03-31 00:00:00
047785,SAN GABRIEL FIRE DEPT,CA,1970-01-01 00:00:00,2006-12-31 00:00:00,34.106,-118.10,True,True,basins,1970-01-01 00:00:00,2006-12-31 00:00:00
047807,SAN GREGORIO 2 SE,CA,1970-01-01 00:00:00,2006-12-31 00:00:00,37.304,-122.36,True,True,basins,1970-01-01 00:00:00,2006-12-31 00:00:00
047813,SAN JACINTO RS,CA,1970-01-01 00:00:00,2006-12-31 00:00:00,33.787,-116.96,True,True,basins,1970-01-01 00:00:00,2006-12-31 00:00:00
047817,SAN JOAQUIN EXP RANGE,CA,1970-01-01 00:00:00,2006-03-31 00:00:00,37.091,-119.72,True,True,basins,1970-01-01 00:00:00,2006-03-31 00:00:00
047821,SAN JOSE,CA,1970-01-01 00:00:00,2006-12-31 00:00:00,37.35,-121.90,True,True,basins,1970-01-01 00:00:00,2006-12-31 00:00:00
047824,SAN JOSE INTL AP,CA,2000-09-01 00:00:00,2006-12-31 00:00:00,37.359,-121.92,True,True,basins,2000-09-01 00:00:00,2006-12-31 00:00:00
047846,SAN LUIS DAM,CA,1970-01-01 00:00:00,2006-12-31 00:00:00,37.053,-121.06,True,True,basins,1970-01-01 00:00:00,2006-12-31 00:00:00
047859,SAN MARCOS PASS,CA,1970-01-01 00:00:00,2006-03-31 00:00:00,34.517,-119.82,True,True,basins,1970-01-01 00:00:00,2006-03-31 00:00:00
047874,SAN PASQUAL ANIMAL PK,CA,1979-06-30 00:00:00,2006-12-31 00:00:00,33.096,-117.00,True,True,basins,1979-06-30 00:00:00,2006-12-31 00:00:00
047880,SAN RAFAEL CIVIC CENTER,CA,1970-01-01 00:00:00,2006-12-31 00:00:00,37.998,-122.54,True,True,basins,1970-01-01 00:00:00,2006-12-31 00:00:00
047888,SANTA ANA FIRE STATION,CA,1970-01-01 00:00:00,2006-12-31 00:00:00,33.744,-117.87,True,True,basins,1970-01-01 00:00:00,2006-12-31 00:00:00
047905,SANTA BARBARA MUNI AP,CA,1970-01-01 00:00:00,2006-12-31 00:00:00,34.426,-119.84,True,True,basins,1970-01-01 00:00:00,2006-12-31 00:00:00
047916,SANTA CRUZ,CA,1970-01-01 00:00:00,2006-12-31 00:00:00,36.991,-121.99,True,True,basins,1970-01-01 00:00:00,2006-12-31 00:00:00
047926,SANTA FE DAM,CA,1970-01-01 00:00:00,2006-12-31 00:00:00,34.112,-117.97,True,True,basins,1970-01-01 00:00:00,2006-12-31 00:00:00
047933,SANTA MARGARITA BOOST,CA,1971-01-01 00:00:00,2006-12-31 00:00:00,35.374,-120.64,True,True,basins,1971-01-01 00:00:00,2006-12-31 00:00:00
047946,SANTA MARIA PUBLIC AP,CA,1970-01-01 00:00:00,2006-12-31 00:00:00,34.899,-120.45,True,True,basins,1970-01-01 00:00:00,2006-12-31 00:00:00
047953,SANTA MONICA PIER,CA,1970-01-01 00:00:00,2005-06-30 00:00:00,34.008,-118.50,True,True,basins,1970-01-01 00:00:00,2005-06-30 00:00:00
047957,SANTA PAULA,CA,1970-01-01 00:00:00,2006-12-31 00:00:00,34.312,-119.13,True,True,basins,1970-01-01 00:00:00,2006-12-31 00:00:00
047965,SANTA ROSA,CA,1970-01-01 00:00:00,2006-12-31 00:00:00,38.438,-122.70,True,True,basins,1970-01-01 00:00:00,2006-12-31 00:00:00
047971,SANTA ROSA SONOMA CO A,CA,2000-09-01 00:00:00,2006-12-31 00:00:00,38.504,-122.81,True,True,basins,2000-09-01 00:00:00,2006-12-31 00:00:00
047976,SANTA YNEZ,CA,1970-01-01 00:00:00,2006-12-31 00:00:00,34.608,-120.07,True,True,basins,1970-01-01 00:00:00,2006-12-31 00:00:00
047987,SANTIAGO DAM,CA,1970-01-01 00:00:00,2001-06-30 00:00:00,33.787,-117.72,True,True,basins,1970-01-01 00:00:00,2001-06-30 00:00:00
048014,SAUGUS POWER PLANT 1,CA,1970-01-01 00:00:00,2006-12-31 00:00:00,34.589,-118.45,True,True,basins,1970-01-01 00:00:00,2006-12-31 00:00:00
048045,SCOTIA,CA,1970-01-01 00:00:00,2006-12-31 00:00:00,40.483,-124.10,True,True,basins,1970-01-01 00:00:00,2006-12-31 00:00:00
048092,SEPULVEDA DAM,CA,1970-01-01 00:00:00,2006-12-31 00:00:00,34.166,-118.47,True,True,basins,1970-01-01 00:00:00,2006-12-31 00:00:00
048163,SHELTER COVE AV,CA,1974-08-31 00:00:00,2006-12-31 00:00:00,40.033,-124.07,True,True,basins,1974-08-31 00:00:00,2006-12-31 00:00:00
048200,SHOSHONE,CA,1972-11-30 00:00:00,2006-12-31 00:00:00,35.972,-116.27,True,True,basins,1972-11-30 00:00:00,2006-12-31 00:00:00
048230,SIGNAL HILL FC 415,CA,1970-01-01 00:00:00,2006-12-31 00:00:00,33.797,-118.17,True,True,basins,1970-01-01 00:00:00,2006-12-31 00:00:00
048243,SILVERADO RANGER STATION,CA,1970-01-01 00:00:00,2006-12-31 00:00:00,33.743,-117.66,True,True,basins,1970-01-01 00:00:00,2006-12-31 00:00:00
048273,SKYLINE RIDGE PRESERVE,CA,1995-06-30 00:00:00,2006-12-31 00:00:00,37.313,-122.18,True,True,basins,1995-06-30 00:00:00,2006-12-31 00:00:00
048317,SNOW CREEK UPPER,CA,1970-01-01 00:00:00,2006-12-31 00:00:00,33.873,-116.68,True,True,basins,1970-01-01 00:00:00,2006-12-31 00:00:00
048351,SONOMA,CA,1970-01-01 00:00:00,2006-12-31 00:00:00,38.299,-122.46,True,True,basins,1970-01-01 00:00:00,2006-12-31 00:00:00
048353,SONORA RS,CA,1970-01-01 00:00:00,2006-12-31 00:00:00,37.967,-120.39,True,True,basins,1970-01-01 00:00:00,2006-12-31 00:00:00
048380,SO ENTRANCE YOSEMITE N.P.,CA,1970-01-01 00:00:00,2006-12-31 00:00:00,37.507,-119.63,True,True,basins,1970-01-01 00:00:00,2006-12-31 00:00:00
048406,SOUTH LAKE,CA,1974-12-31 00:00:00,2004-06-30 00:00:00,37.168,-118.57,True,True,basins,1974-12-31 00:00:00,2004-06-30 00:00:00
048436,SPADRA LANTERMAN HOSPITAL,CA,1970-01-01 00:00:00,2006-12-31 00:00:00,34.042,-117.81,True,True,basins,1970-01-01 00:00:00,2006-12-31 00:00:00
048460,SPRINGVILLE R S,CA,1970-01-01 00:00:00,2006-03-31 00:00:00,36.142,-118.81,True,True,basins,1970-01-01 00:00:00,2006-03-31 00:00:00
048463,SPRINGVILLE TULE HD,CA,1970-01-01 00:00:00,2006-03-31 00:00:00,36.193,-118.66,True,True,basins,1970-01-01 00:00:00,2006-03-31 00:00:00
048490,STANDISH HICKEY ST PK,CA,1970-01-01 00:00:00,2006-12-31 00:00:00,39.88,-123.73,True,True,basins,1970-01-01 00:00:00,2006-12-31 00:00:00
048558,STOCKTON AP,CA,1970-01-01 00:00:00,2006-12-31 00:00:00,37.889,-121.23,True,True,basins,1970-01-01 00:00:00,2006-12-31 00:00:00
048560,STOCKTON FIRE STN # 4,CA,1970-01-01 00:00:00,2006-12-31 00:00:00,37.999,-121.32,True,True,basins,1970-01-01 00:00:00,2006-12-31 00:00:00
048580,STONYFORD,CA,1970-01-01 00:00:00,2006-12-31 00:00:00,39.375,-122.55,True,True,basins,1970-01-01 00:00:00,2006-12-31 00:00:00
048606,STRAWBERRY VALLEY,CA,1970-01-01 00:00:00,2006-12-31 00:00:00,39.563,-121.11,True,True,basins,1970-01-01 00:00:00,2006-12-31 00:00:00
048655,SUN CITY,CA,1973-04-30 00:00:00,2005-08-31 00:00:00,33.716,-117.19,True,True,basins,1973-04-30 00:00:00,2005-08-31 00:00:00
048697,SURF 2 ENE,CA,1970-01-01 00:00:00,2006-03-31 00:00:00,34.681,-120.54,True,True,basins,1970-01-01 00:00:00,2006-03-31 00:00:00
048702,SUSANVILLE 2SW,CA,1970-01-01 00:00:00,2006-12-31 00:00:00,40.417,-120.66,True,True,basins,1970-01-01 00:00:00,2006-12-31 00:00:00
048758,TAHOE CITY,CA,1970-01-01 00:00:00,2006-12-31 00:00:00,39.168,-120.14,True,True,basins,1970-01-01 00:00:00,2006-12-31 00:00:00
048829,TEHACHAPI 4 SE,CA,1997-07-31 00:00:00,2006-12-31 00:00:00,35.101,-118.42,True,True,basins,1997-07-31 00:00:00,2006-12-31 00:00:00
048839,TEJON RANCHO,CA,1970-01-01 00:00:00,2006-12-31 00:00:00,35.023,-118.75,True,True,basins,1970-01-01 00:00:00,2006-12-31 00:00:00
048844,TEMECULA,CA,1971-09-01 00:00:00,2006-03-31 00:00:00,33.50,-117.15,True,True,basins,1971-09-01 00:00:00,2006-03-31 00:00:00
048893,THERMAL FIRE STN 39,CA,1972-11-01 00:00:00,2006-03-31 00:00:00,33.633,-116.17,True,True,basins,1972-11-01 00:00:00,2006-03-31 00:00:00
048967,TOPANGA PATROL FC-6,CA,1970-01-01 00:00:00,2006-12-31 00:00:00,34.084,-118.60,True,True,basins,1970-01-01 00:00:00,2006-12-31 00:00:00
048973,TORRANCE AIRPORT,CA,1970-01-01 00:00:00,2006-12-31 00:00:00,33.802,-118.34,True,True,basins,1970-01-01 00:00:00,2006-12-31 00:00:00
048992,TRABUCO CANYON,CA,1970-01-01 00:00:00,2006-03-31 00:00:00,33.658,-117.59,True,True,basins,1970-01-01 00:00:00,2006-03-31 00:00:00
048999,TRACY CARBONA,CA,1970-01-01 00:00:00,2006-12-31 00:00:00,37.682,-121.35,True,True,basins,1970-01-01 00:00:00,2006-12-31 00:00:00
049001,TRACY PUMPING PLANT,CA,1970-01-01 00:00:00,2006-12-31 00:00:00,37.797,-121.58,True,True,basins,1970-01-01 00:00:00,2006-12-31 00:00:00
049026,TRINITY RIVER HATCHERY,CA,1974-07-31 00:00:00,2006-12-31 00:00:00,40.726,-122.79,True,True,basins,1974-07-31 00:00:00,2006-12-31 00:00:00
049035,TRONA,CA,1970-01-01 00:00:00,2006-12-31 00:00:00,35.764,-117.39,True,True,basins,1970-01-01 00:00:00,2006-12-31 00:00:00
049073,TURLOCK #2,CA,1970-01-01 00:00:00,2006-12-31 00:00:00,37.501,-120.86,True,True,basins,1970-01-01 00:00:00,2006-12-31 00:00:00
049087,TUSTIN IRVINE RANCH,CA,1970-01-01 00:00:00,2003-06-30 00:00:00,33.702,-117.75,True,True,basins,1970-01-01 00:00:00,2003-06-30 00:00:00
049099,TWENTYNINE PALMS,CA,1970-01-01 00:00:00,2006-12-31 00:00:00,34.128,-116.04,True,True,basins,1970-01-01 00:00:00,2006-12-31 00:00:00
049111,TWITCHELL DAM,CA,1970-01-01 00:00:00,2006-12-31 00:00:00,34.988,-120.32,True,True,basins,1970-01-01 00:00:00,2006-12-31 00:00:00
049120,UHL R S,CA,1970-01-01 00:00:00,2006-03-31 00:00:00,35.883,-118.65,True,True,basins,1970-01-01 00:00:00,2006-03-31 00:00:00
049122,UKIAH,CA,1970-01-01 00:00:00,2006-12-31 00:00:00,39.147,-123.21,True,True,basins,1970-01-01 00:00:00,2006-12-31 00:00:00
049124,UKIAH 4 WSW,CA,1970-01-01 00:00:00,2006-12-31 00:00:00,39.127,-123.27,True,True,basins,1970-01-01 00:00:00,2006-12-31 00:00:00
049152,U C L A,CA,1970-01-01 00:00:00,2006-12-31 00:00:00,34.07,-118.44,True,True,basins,1970-01-01 00:00:00,2006-12-31 00:00:00
049200,VACAVILLE,CA,1970-01-01 00:00:00,2006-12-31 00:00:00,38.396,-121.96,True,True,basins,1970-01-01 00:00:00,2006-12-31 00:00:00
049219,VALLEJO MARINE WORLD,CA,1998-01-31 00:00:00,2006-08-31 00:00:00,38.14,-122.23,True,True,basins,1998-01-31 00:00:00,2006-08-31 00:00:00
049285,VENTURA,CA,1970-01-01 00:00:00,2006-12-31 00:00:00,34.283,-119.29,True,True,basins,1970-01-01 00:00:00,2006-12-31 00:00:00
049325,VICTORVILLE PUMP PLANT,CA,1970-01-01 00:00:00,2006-03-31 00:00:00,34.535,-117.31,True,True,basins,1970-01-01 00:00:00,2006-03-31 00:00:00
049351,VINTON,CA,1970-01-01 00:00:00,2006-12-31 00:00:00,39.806,-120.19,True,True,basins,1970-01-01 00:00:00,2006-12-31 00:00:00
049367,VISALIA,CA,1970-01-01 00:00:00,2006-12-31 00:00:00,36.328,-119.30,True,True,basins,1970-01-01 00:00:00,2006-12-31 00:00:00
049378,VISTA 2 NNE,CA,1970-01-01 00:00:00,2006-12-31 00:00:00,33.229,-117.23,True,True,basins,1970-01-01 00:00:00,2006-12-31 00:00:00
049452,WASCO,CA,1970-01-01 00:00:00,2006-12-31 00:00:00,35.597,-119.35,True,True,basins,1970-01-01 00:00:00,2006-12-31 00:00:00
049473,WATSONVILLE WATERWORKS,CA,1970-01-01 00:00:00,2006-12-31 00:00:00,36.931,-121.77,True,True,basins,1970-01-01 00:00:00,2006-12-31 00:00:00
049482,WAWONA RANGER STATION,CA,1970-01-01 00:00:00,2006-06-30 00:00:00,37.54,-119.65,True,True,basins,1970-01-01 00:00:00,2006-06-30 00:00:00
049621,WHISKEYTOWN RESERVOIR,CA,1970-01-01 00:00:00,2006-12-31 00:00:00,40.612,-122.53,True,True,basins,1970-01-01 00:00:00,2006-12-31 00:00:00
049660,WHITTIER CITY YD FC106C,CA,1970-01-01 00:00:00,2006-12-31 00:00:00,33.976,-118.02,True,True,basins,1970-01-01 00:00:00,2006-12-31 00:00:00
049666,WHITTIER NARROWS DAM,CA,1972-09-01 00:00:00,2006-12-31 00:00:00,34.017,-118.08,True,True,basins,1972-09-01 00:00:00,2006-12-31 00:00:00
