station_id,station_name,start_date,end_date,latitude,longitude,in_basins,break_with_basins
010008,ABBEVILLE,1948-06-01 00:00:00,2018-04-18 00:00:00,31.5702,-85.2482,True,False
010063,ADDISON,1948-06-01 00:00:00,2020-07-03 00:00:00,34.2553,-87.1814,True,False
010140,ALBERTA,1963-09-26 00:00:00,2020-08-01 00:00:00,32.2322,-87.4104,True,False
010252,ANDALUSIA 3 W,1980-03-01 00:00:00,2018-02-05 00:00:00,31.3071,-86.5226,True,False
010369,ASHLAND 3 ENE,1948-06-01 00:00:00,2013-08-04 00:00:00,33.2941,-85.7788,True,False
010390,ATHENS,1982-06-01 00:00:00,2020-08-03 00:00:00,34.7752,-86.9508,False,False
010402,ATMORE,1948-06-01 00:00:00,2020-08-03 00:00:00,31.1820,-87.4390,True,False
010425,AUBURN NO.2,2000-12-01 00:00:00,2020-07-01 00:00:00,32.5992,-85.4653,True,False
010748,BERRY 3 NW,1948-06-01 00:00:00,2020-07-01 00:00:00,33.6971,-87.6488,False,False
010957,BOAZ,1948-06-01 00:00:00,2020-08-06 00:00:00,34.2008,-86.1633,True,False
011099,BRIDGEPORT 5 NW,1982-11-01 00:00:00,2020-08-04 00:00:00,34.9786,-85.8008,True,False
012124,DADEVILLE 2,1948-06-01 00:00:00,2020-07-01 00:00:00,32.8622,-85.7358,True,False
012172,DAUPHIN ISLAND #2,1975-08-01 00:00:00,2020-08-03 00:00:00,30.2505,-88.0775,True,False
012377,DOTHAN 4 NW,1952-04-01 00:00:00,2020-07-04 00:00:00,31.2833,-85.4000,True,False
012675,ENTERPRISE 4 W,1971-04-01 00:00:00,2020-07-01 00:00:00,31.2975,-85.8996,True,False
013043,FORT PAYNE,1948-06-01 00:00:00,2020-08-03 00:00:00,34.4406,-85.7236,True,False
013519,GREENVILLE,1971-09-01 00:00:00,2020-08-04 00:00:00,31.7901,-86.6087,True,False
013620,HALEYVILLE,1948-06-01 00:00:00,2020-07-05 00:00:00,34.2314,-87.6352,True,False
013645,HAMILTON 3 S,1967-11-03 00:00:00,2020-07-01 00:00:00,34.0966,-87.9913,True,False
014193,JACKSON,1961-10-23 00:00:00,2020-08-03 00:00:00,31.5253,-87.9277,True,False
014209,JACKSONVILLE,1948-06-01 00:00:00,2020-07-06 00:00:00,33.8259,-85.7812,True,False
015397,MIDWAY,1948-06-01 00:00:00,2020-07-01 00:00:00,32.0347,-85.4740,True,False
015553,MONTGOMERY 6SW,1998-03-31 00:00:00,2020-07-01 00:00:00,32.2600,-86.2180,True,False
018178,THOMASVILLE,1967-11-02 00:00:00,2014-03-13 00:00:00,31.9172,-87.7347,True,False
018209,THORSBY EXP STATION,1970-03-01 00:00:00,2020-07-14 00:00:00,32.9205,-86.6708,True,False
018385,TUSCALOOSA OLIVER DAM,1958-01-13 00:00:00,2020-07-01 00:00:00,33.2097,-87.5936,True,False
018517,VERNON,1948-06-01 00:00:00,2020-07-05 00:00:00,33.7392,-88.1275,True,False
018670,WARRIOR,1972-04-25 00:00:00,2020-06-04 00:00:00,33.7924,-86.8258,True,False
018673,WARRIOR LOCK AND DAM,1957-12-04 00:00:00,2020-07-01 00:00:00,32.7747,-87.8306,True,False
020080,AJO,1948-07-01 00:00:00,2020-08-01 00:00:00,32.3698,-112.8599,True,False
020487,ASH FORK 3,1948-07-01 00:00:00,2020-07-27 00:00:00,35.1989,-112.4886,True,False
020808,BLACK RIVER PUMPS,1948-07-01 00:00:00,2020-08-02 00:00:00,33.4783,-109.7516,True,False
021574,CHEVELON RANGER STATION,1982-02-01 00:00:00,2020-07-30 00:00:00,34.5400,-110.9152,True,False
021749,CIBECUE,1980-07-01 00:00:00,2020-06-27 00:00:00,34.0500,-110.4500,False,False
021870,COCHISE 4 SSE,1948-07-01 00:00:00,2019-06-13 00:00:00,32.0588,-109.8908,True,False
022329,CROWN KING,1980-06-01 00:00:00,2020-07-27 00:00:00,34.2097,-112.3453,False,False
022754,DUNCAN,1975-08-28 00:00:00,2020-08-05 00:00:00,32.7480,-109.1213,True,False
023009,FLAGSTAFF 4 SW,2003-03-17 00:00:00,2020-06-09 00:00:00,35.1611,-111.7311,True,False
024534,KARTCHNER CAVERNS,2010-03-02 00:00:00,2020-08-01 00:00:00,31.8352,-110.3552,False,False
024586,KEAMS CANYON,1948-07-01 00:00:00,2016-08-17 00:00:00,35.8109,-110.1932,True,False
025344,MAYER NO. 2,1986-12-01 00:00:00,2020-07-27 00:00:00,34.3709,-112.1827,True,False
025635,MONTEZUMA CASTLE NM,1979-07-19 00:00:00,2020-07-15 00:00:00,34.6105,-111.8380,True,False
025924,NOGALES 6 N,1983-09-02 00:00:00,2020-08-03 00:00:00,31.4554,-110.9680,True,False
026119,ORACLE 2 SE,1950-02-24 00:00:00,2010-04-07 00:00:00,32.6025,-110.7344,True,False
026468,PETRIFIED FOREST NP,1948-07-01 00:00:00,2020-07-01 00:00:00,34.7994,-109.8850,True,False
027708,SEDONA,1973-04-12 00:00:00,2010-09-01 00:00:00,34.8955,-111.7644,True,False
027876,SIERRA ANCHA,1976-01-01 00:00:00,2020-07-30 00:00:00,33.7986,-110.9714,False,False
029158,WALNUT CREEK,1979-07-20 00:00:00,2020-07-01 00:00:00,34.9281,-112.8097,True,False
029271,WHITERIVER 1 SW,1948-07-01 00:00:00,2011-09-20 00:00:00,33.8215,-109.9840,True,False
030064,ALICIA 2NNE,1948-05-29 00:00:00,2020-08-01 00:00:00,35.9307,-91.0550,True,False
030130,ALUM FORK,1948-05-01 00:00:00,2020-08-01 00:00:00,34.7961,-92.8417,True,False
030178,ANTOINE 1 SW,1950-08-10 00:00:00,2020-08-01 00:00:00,34.0275,-93.4332,True,False
030220,ARKADELPHIA 2 N,1948-05-01 00:00:00,2020-08-13 00:00:00,34.1433,-93.0589,True,False
030326,AUGUSTA,1948-05-01 00:00:00,2020-07-03 00:00:00,35.2894,-91.3533,True,False
030458,BATESVILLE LVSTK,1949-08-01 00:00:00,2020-07-01 00:00:00,35.8306,-91.7944,True,False
030530,BEEBE,1948-05-01 00:00:00,2020-06-25 00:00:00,35.0644,-91.8961,True,False
030616,BERRYVILLE 5 NW,1948-05-01 00:00:00,2014-11-26 00:00:00,36.4294,-93.6255,True,False
030764,BLAKELY MOUNTAIN DAM,1950-05-01 00:00:00,2020-08-03 00:00:00,34.5697,-93.1947,True,False
030798,BLUE MOUNTAIN DAM,1948-05-01 00:00:00,2020-08-04 00:00:00,35.1161,-93.6506,True,False
030832,BOONEVILLE 3 SSE,1978-04-06 00:00:00,2020-08-03 00:00:00,35.0930,-93.9258,True,False
030842,BOTKINBURG 3 NE,1948-05-01 00:00:00,2020-08-01 00:00:00,35.7264,-92.4672,True,False
030900,BRIGGSVILLE,1985-11-01 00:00:00,2018-10-23 00:00:00,34.9458,-93.4637,True,False
030936,BRINKLEY,1948-05-01 00:00:00,2017-09-22 00:00:00,34.8822,-91.2152,True,False
031020,BULL SHOALS DAM,1948-05-01 00:00:00,2020-08-03 00:00:00,36.3647,-92.5781,True,False
031140,CALION LOCK & DAM,1985-10-01 00:00:00,2020-03-03 00:00:00,33.3063,-92.4832,True,False
031152,CAMDEN 1,1966-04-27 00:00:00,2020-01-27 00:00:00,33.5900,-92.8236,True,False
031457,CLARKSVILLE 6 NE,1961-12-01 00:00:00,2020-07-01 00:00:00,35.5328,-93.4036,True,False
031582,COMPTON,1948-05-01 00:00:00,2020-08-01 00:00:00,36.0913,-93.3208,True,False
031632,CORNING,1948-05-01 00:00:00,2020-07-07 00:00:00,36.4197,-90.5858,True,False
031948,DEQUEEN,2008-03-10 00:00:00,2020-05-07 00:00:00,34.0463,-94.3480,True,True
031952,DE QUEEN DAM,1973-05-03 00:00:00,2008-02-05 00:00:00,34.1002,-94.3724,True,False
032015,DIERKS,2005-12-20 00:00:00,2020-07-20 00:00:00,34.1266,-94.0172,True,False
032148,DUMAS,1961-02-01 00:00:00,2019-11-18 00:00:00,33.8885,-91.5316,True,False
032356,EUREKA SPRINGS 3 WNW,1949-07-01 00:00:00,2012-09-25 00:00:00,36.4163,-93.7916,True,False
032444,FAYETTEVILLE EXP STA,1966-04-13 00:00:00,2020-07-06 00:00:00,36.1010,-94.1737,True,False
032489,FERNDALE 6 E,1981-05-04 00:00:00,2020-06-25 00:00:00,34.7594,-92.4553,True,False
032544,FOREMAN,1948-05-01 00:00:00,2020-07-01 00:00:00,33.7222,-94.3975,True,False
032794,GILBERT,1948-05-01 00:00:00,2020-08-03 00:00:00,35.9885,-92.7161,True,False
032978,GREERS FERRY DAM,1965-02-01 00:00:00,2020-08-01 00:00:00,35.5206,-91.9997,True,False
033132,HARDY,1948-05-01 00:00:00,2020-03-05 00:00:00,36.2747,-91.5056,True,False
033544,HUNTSVILLE 1 SSW,1983-05-01 00:00:00,2012-09-25 00:00:00,36.0700,-93.7522,True,False
034185,LEWISVILLE,1991-04-01 00:00:00,2020-07-02 00:00:00,33.3613,-93.5674,True,False
034548,MAGNOLIA,1948-05-01 00:00:00,2020-07-13 00:00:00,33.2586,-93.1822,True,False
034756,MENA,1948-05-01 00:00:00,2020-08-02 00:00:00,34.5979,-94.2900,True,False
034839,MILLWOOD DAM,1963-07-11 00:00:00,2020-07-28 00:00:00,33.6772,-93.9902,True,False
035110,NARROWS DAM,1950-05-01 00:00:00,2020-01-07 00:00:00,34.1452,-93.7138,True,False
035112,NASHVILLE,1966-03-01 00:00:00,2020-04-08 00:00:00,33.9293,-93.8507,True,False
035200,NIMROD DAM,1948-05-01 00:00:00,2020-08-03 00:00:00,34.9553,-93.1594,True,False
035228,NORFORK DAM,1948-05-01 00:00:00,2020-07-28 00:00:00,36.2494,-92.2383,True,False
003952,NORTH LITTLE ROCK WFO,1976-01-01 00:00:00,2020-08-01 00:00:00,34.8353,-92.2596,False,False
035602,PARTHENON,1948-05-01 00:00:00,2015-09-01 00:00:00,35.9547,-93.2405,True,False
035754,PINE BLUFF,1953-01-01 00:00:00,2020-04-17 00:00:00,34.2255,-92.0185,True,False
035908,PRESCOTT 2 NNW,1982-08-01 00:00:00,2018-10-12 00:00:00,33.8204,-93.3879,True,False
036393,ST. PAUL 1 E,1988-03-01 00:00:00,2020-04-02 00:00:00,35.8236,-93.7672,True,False
036403,SALEM,1987-09-01 00:00:00,2012-06-02 00:00:00,36.3561,-91.8036,True,False
036405,SALEM NO 2,2002-04-01 00:00:00,2020-08-01 00:00:00,36.4261,-91.9158,False,False
036920,STUTTGART 9 ESE,1948-06-01 00:00:00,2020-08-03 00:00:00,34.4744,-91.4172,True,False
037488,WALDRON,1948-05-01 00:00:00,2020-03-02 00:00:00,34.9229,-94.0944,True,False
038052,WYNNE,1979-06-13 00:00:00,2020-07-03 00:00:00,35.2547,-90.7965,True,False
040161,ALTURAS,1948-07-01 00:00:00,2020-08-02 00:00:00,41.4901,-120.5437,True,False
040212,ANGWIN PACIFIC UNION COLLEGE,1967-11-03 00:00:00,2020-06-08 00:00:00,38.5730,-122.4405,True,False
040321,ARROYO GRANDE 11 ENE,1994-01-07 00:00:00,2020-08-07 00:00:00,35.1844,-120.3980,True,False
040322,ARROYO SECO,1948-12-01 00:00:00,2018-05-01 00:00:00,36.2355,-121.4800,True,False
040449,BALCH POWER HOUSE,1950-02-01 00:00:00,2020-06-01 00:00:00,36.9092,-119.0883,True,False
040546,BATTLE CREEK ADR,1971-07-01 00:00:00,2020-07-01 00:00:00,40.3983,-122.1452,True,False
040731,BIEBER,1948-07-01 00:00:00,2020-07-15 00:00:00,41.1208,-121.1347,True,False
040742,BIG BEAR LAKE DAM,1948-07-01 00:00:00,2020-06-11 00:00:00,34.2414,-116.9751,True,False
040790,BIG SUR STATION,1996-12-02 00:00:00,2020-05-07 00:00:00,36.2472,-121.7802,True,False
040883,BLODGETT EXPER FOREST,1969-10-01 00:00:00,2020-07-01 00:00:00,38.9091,-120.6677,True,False
041005,BOULDER CR LOCAT RCH,1948-07-01 00:00:00,2020-06-01 00:00:00,37.1422,-122.1963,True,False
041018,BOWMAN DAM,1948-07-01 00:00:00,2016-06-01 00:00:00,39.4539,-120.6556,True,False
041076,BRIDGEPORT R.S.,1950-06-09 00:00:00,2020-07-02 00:00:00,38.2505,-119.2161,False,False
041130,BRUSH CREEK RANGER STATION,1948-07-01 00:00:00,2020-07-01 00:00:00,39.6949,-121.3452,True,False
041142,BRYSON,1948-07-01 00:00:00,2020-06-04 00:00:00,35.7989,-121.0939,True,False
041194,BURBANK VALLEY PUMP PLANT,1948-07-01 00:00:00,2020-08-01 00:00:00,34.1866,-118.3480,True,False
041272,CAJON WEST SUMMIT,1948-07-01 00:00:00,2020-06-15 00:00:00,34.3899,-117.5758,True,False
041277,CALAVERAS BIG TREES,1986-07-10 00:00:00,2020-07-01 00:00:00,38.2769,-120.3113,True,False
041369,CAMP ANGELUS,1948-07-01 00:00:00,2020-06-11 00:00:00,34.1491,-116.9802,True,False
041428,CAMP PARDEE,1948-07-01 00:00:00,2020-07-02 00:00:00,38.2486,-120.8433,True,False
041460,CAMPTONVILLE 1SW,1995-02-10 00:00:00,2020-07-21 00:00:00,39.4397,-121.0712,True,False
041497,CANYON DAM,1975-10-17 00:00:00,2020-07-27 00:00:00,40.1705,-121.0886,True,False
041715,CHICO UNIVERSITY FARM,1948-07-01 00:00:00,2020-07-22 00:00:00,39.6911,-121.8211,True,False
041864,COALINGA,1948-07-01 00:00:00,2020-05-02 00:00:00,36.1356,-120.3606,True,False
041886,COFFEE CREEK RS,1960-11-09 00:00:00,2020-06-10 00:00:00,41.0894,-122.7086,True,False
042012,CORCORAN IRRIGATION DIST.,1956-01-19 00:00:00,2019-06-05 00:00:00,36.0975,-119.5817,True,False
042048,CORRALITOS,1958-04-15 00:00:00,2020-06-02 00:00:00,36.9897,-121.8050,True,False
042084,COVELO EEL RIVER RS,1948-07-01 00:00:00,2019-07-09 00:00:00,39.8261,-123.0850,True,False
042164,CRESTLINE,1966-04-18 00:00:00,2020-06-15 00:00:00,34.2393,-117.2988,True,False
042239,CUYAMACA,1967-08-22 00:00:00,2019-06-01 00:00:00,32.9897,-116.5872,True,False
042294,DAVIS 2 WSW EXP FARM,1948-07-01 00:00:00,2020-07-06 00:00:00,38.5349,-121.7761,True,False
042306,DAY,1948-07-01 00:00:00,2020-08-01 00:00:00,41.2122,-121.3741,True,False
042500,DOWNIEVILLE,1948-07-01 00:00:00,2020-07-01 00:00:00,39.5633,-120.8238,True,False
042749,ELK VALLEY,1971-05-01 00:00:00,2018-11-01 00:00:00,41.9880,-123.7183,True,False
042899,ETNA,1948-07-01 00:00:00,2020-06-09 00:00:00,41.4574,-122.8994,True,False
042935,FAIRFIELD 3 NNE,1972-02-01 00:00:00,2020-07-08 00:00:00,38.2880,-122.0344,True,False
043038,FIDDLETOWN DEXTER RCH,1948-07-01 00:00:00,2020-07-01 00:00:00,38.5236,-120.7061,True,False
043161,FORT BRAGG 5 N,1948-07-01 00:00:00,2020-01-02 00:00:00,39.5091,-123.7566,False,False
043182,FORT JONES RS,1976-11-17 00:00:00,2020-08-05 00:00:00,41.6010,-122.8478,True,False
043194,FORT SEWARD,1972-08-01 00:00:00,2020-08-20 00:00:00,40.2183,-123.6322,False,False
043219,FRAZIER PARK 9 SW,1994-03-07 00:00:00,2020-08-05 00:00:00,34.7333,-119.1038,True,False
043357,GASQUET RS,1971-03-01 00:00:00,2020-08-01 00:00:00,41.8452,-123.9647,True,False
043384,GEORGETOWN RS,1967-11-01 00:00:00,2020-07-20 00:00:00,38.9330,-120.8008,True,False
043402,GIBRALTAR DAM NO. 2,1970-05-01 00:00:00,2020-08-11 00:00:00,34.5225,-119.6822,True,False
043419,GILROY 8 NE,1948-07-01 00:00:00,2020-05-31 00:00:00,37.0327,-121.4316,True,False
043573,GRASS VALLEY NO. 2,1966-09-13 00:00:00,2020-07-01 00:00:00,39.2041,-121.0680,True,False
043647,GRIZZLY CREEK STATE PARK,1995-07-02 00:00:00,2012-10-27 00:00:00,40.4863,-123.9088,True,False
043669,GROVELAND 2,1948-07-01 00:00:00,2020-07-01 00:00:00,37.8444,-120.2258,True,False
043761,HAPPY CAMP RANGER STATION,1948-07-01 00:00:00,2020-04-03 00:00:00,41.7961,-123.3747,True,False
043791,HARRISON GULCH RS,1948-11-01 00:00:00,2020-07-04 00:00:00,40.3636,-122.9650,True,False
043891,HELL HOLE,1954-01-01 00:00:00,2020-07-05 00:00:00,39.0583,-120.4150,True,False
043928,HERNANDEZ 7 SE,1948-07-01 00:00:00,2018-07-31 00:00:00,36.3052,-120.7047,True,False
043939,HETCH HETCHY,1948-07-01 00:00:00,2020-07-02 00:00:00,37.9613,-119.7830,True,False
044025,HOLLISTER 2,1948-07-01 00:00:00,2020-06-02 00:00:00,36.8483,-121.4213,True,False
044074,HONEYDEW 1 SW,1971-07-01 00:00:00,2020-08-21 00:00:00,40.2375,-124.1322,False,False
044089,HOOPA,1971-06-01 00:00:00,2020-08-03 00:00:00,41.0483,-123.6755,True,False
044191,HYAMPOM,1948-07-01 00:00:00,2017-04-07 00:00:00,40.6161,-123.4566,True,False
044232,INDEPENDENCE,1948-07-01 00:00:00,2019-01-14 00:00:00,36.7980,-118.2036,True,False
044587,KNEELAND 10 SSE,1954-06-17 00:00:00,2020-08-07 00:00:00,40.6422,-123.9149,True,False
044689,LAKE MENDOCINO DAM,1972-06-01 00:00:00,2019-09-18 00:00:00,39.2030,-123.1850,True,False
044712,LAKE SOLANO,1962-10-01 00:00:00,2020-07-01 00:00:00,38.4920,-122.0039,True,False
044883,LEGGETT,1972-08-01 00:00:00,2020-05-27 00:00:00,39.8744,-123.7205,False,False
045067,LONE PINE 11 S COTTONWOOD POWER HOUSE,1948-07-01 00:00:00,2019-01-01 00:00:00,36.4430,-118.0433,True,False
045100,LORAINE 5 NNE,1987-05-01 00:00:00,2020-06-01 00:00:00,35.3836,-118.4122,False,False
045184,LUCIA WILLOW SPRINGS,1948-07-01 00:00:00,2020-06-02 00:00:00,35.8780,-121.4497,True,False
045242,MAD RIVER 12 SE,1996-11-01 00:00:00,2020-08-11 00:00:00,40.3186,-123.3738,True,False
045258,MAHNKE,1956-01-01 00:00:00,2020-07-24 00:00:00,38.8547,-122.7819,True,False
045623,MILFORD LAUFMAN RS,1948-07-01 00:00:00,2020-07-01 00:00:00,40.1414,-120.3533,True,False
045679,MINERAL,1948-07-01 00:00:00,2020-07-01 00:00:00,40.3458,-121.6091,True,False
045711,MIRANDA 4 SE,1965-01-01 00:00:00,2020-08-20 00:00:00,40.1816,-123.7761,True,False
045741,MODESTO 2,1948-07-01 00:00:00,2020-07-01 00:00:00,37.6255,-121.0313,True,False
045756,MOJAVE,1959-11-01 00:00:00,2020-06-01 00:00:00,35.0492,-118.1619,True,False
045785,MONTAGUE 5NE,1948-07-01 00:00:00,2020-07-09 00:00:00,41.7806,-122.4717,True,False
045802,MONTEREY WFO,1995-07-01 00:00:00,2019-02-03 00:00:00,36.5927,-121.8555,True,False
045853,MORGAN HILL,1948-07-01 00:00:00,2020-06-07 00:00:00,37.1363,-121.6025,True,False
045983,MOUNT SHASTA WSO CITY,1948-08-01 00:00:00,2020-07-15 00:00:00,41.3167,-122.3167,True,False
045996,MOUNT TAMALPAIS 2 SW,1959-06-25 00:00:00,2020-06-01 00:00:00,37.9027,-122.6033,True,False
046105,NAVARRO 1 NW,1958-02-01 00:00:00,2019-05-31 00:00:00,39.1739,-123.5647,True,False
046115,NEEDLES,1953-02-18 00:00:00,2015-06-04 00:00:00,34.8300,-114.5936,True,False
046154,NEW CUYAMA FIRE STATION,1973-12-11 00:00:00,2020-08-05 00:00:00,34.9455,-119.6827,True,False
046174,NEW MELONES DAM HQ,1994-01-01 00:00:00,2020-07-01 00:00:00,38.0047,-120.4863,True,False
046232,NORTH BLOOMFIELD,1969-10-01 00:00:00,2020-07-01 00:00:00,39.3675,-120.8991,True,False
046513,ORLEANS RS,1971-06-01 00:00:00,2020-08-03 00:00:00,41.3033,-123.5344,False,False
046521,OROVILLE,1982-11-01 00:00:00,2020-07-01 00:00:00,39.5177,-121.5530,True,False
046577,OZENA GUARD STATION,1972-11-21 00:00:00,2020-08-05 00:00:00,34.6825,-119.3530,True,False
046624,PALMDALE,1963-02-13 00:00:00,2020-08-05 00:00:00,34.5883,-118.0938,True,False
046726,PASKENTA RANGER STATION,1949-12-01 00:00:00,2020-07-01 00:00:00,39.8875,-122.5538,True,False
046730,PASO ROBLES,1976-09-13 00:00:00,2020-08-03 00:00:00,35.6277,-120.6855,True,False
046826,PETALUMA AIRPORT,1964-06-03 00:00:00,2020-03-03 00:00:00,38.2577,-122.6077,True,False
046893,PINECREST SUMMIT RS,1964-11-27 00:00:00,2020-07-06 00:00:00,38.1869,-120.0055,True,False
046910,PINE MOUNTAIN INN,1965-01-20 00:00:00,2013-04-30 00:00:00,34.6102,-119.3666,True,False
046964,PLACERVILLE DISP. PLANT,1963-06-14 00:00:00,2020-07-01 00:00:00,38.7311,-120.8469,True,False
046998,PLUMAS EUREKA ST PARK,1964-05-01 00:00:00,2020-07-02 00:00:00,39.7578,-120.6964,True,False
047085,PORTOLA,1954-10-19 00:00:00,2020-07-02 00:00:00,39.8053,-120.4719,True,False
047293,RED BLUFF TREATMENT PLANT,1992-02-01 00:00:00,2020-07-08 00:00:00,40.1622,-122.2202,True,False
047342,REDWOOD CREEK O'KANE,1975-02-14 00:00:00,2018-10-29 00:00:00,40.9069,-123.8147,False,False
047489,ROBBS PEAK PH,1967-02-01 00:00:00,2020-07-01 00:00:00,38.9027,-120.3766,True,False
047600,RUNNING SPRINGS 1 E,1948-07-01 00:00:00,2020-06-15 00:00:00,34.2045,-117.0870,True,False
047646,SAINT HELENA 4 WSW,1948-07-01 00:00:00,2020-06-01 00:00:00,38.4930,-122.5383,True,False
047851,SAN LUIS OBISPO POLY,1948-07-01 00:00:00,2020-08-03 00:00:00,35.3056,-120.6619,True,False
047867,SAN MIGUEL WOLF RANCH,1973-12-20 00:00:00,2020-08-02 00:00:00,35.7527,-120.6827,True,False
047902,SANTA BARBARA,1948-07-01 00:00:00,2020-08-01 00:00:00,34.4167,-119.6844,False,False
048025,SAWYERS BAR RS,1971-06-01 00:00:00,2020-08-01 00:00:00,41.3010,-123.1330,True,False
048072,SEBASTOPOL,1948-07-01 00:00:00,2020-06-01 00:00:00,38.4086,-122.8211,True,False
048135,SHASTA DAM,1948-07-01 00:00:00,2020-07-22 00:00:00,40.7141,-122.4161,True,False
048218,SIERRAVILLE RS,1948-07-01 00:00:00,2020-07-02 00:00:00,39.5833,-120.3705,True,False
048261,SIMI SANITATION PLANT,1975-10-31 00:00:00,2013-11-07 00:00:00,34.2838,-118.8119,True,False
048332,SODA SPRINGS 1 E,1961-07-01 00:00:00,2020-06-18 00:00:00,39.3255,-120.3672,True,False
048355,SONORA JUNCTION,1959-09-08 00:00:00,2020-07-01 00:00:00,38.3511,-119.4500,True,False
048544,STIRLING CITY RS,1957-10-29 00:00:00,2020-07-02 00:00:00,39.9041,-121.5280,False,False
048587,STONY GORGE RESERVOIR,1948-07-01 00:00:00,2020-07-01 00:00:00,39.5861,-122.5341,True,False
048680,SUNSET STATE BEACH,1956-11-20 00:00:00,2019-11-05 00:00:00,36.8975,-121.8347,True,False
048703,SUSANVILLE 1 WNW,1952-09-20 00:00:00,2020-07-01 00:00:00,40.4239,-120.6747,True,False
048832,TEHACHAPI AP,1948-07-01 00:00:00,2020-06-10 00:00:00,35.1308,-118.4325,True,False
048885,THE GEYSERS,1948-07-01 00:00:00,2020-06-04 00:00:00,38.8038,-122.8127,True,False
048912,THREE RIVERS 6 SE,1957-01-09 00:00:00,2017-08-01 00:00:00,36.3675,-118.8475,True,False
048917,THREE RIVERS EDISON PH 1,1948-07-01 00:00:00,2020-06-02 00:00:00,36.4650,-118.8619,True,False
049043,TRUCKEE RS,1948-07-01 00:00:00,2020-07-02 00:00:00,39.3330,-120.1730,True,False
049053,TULELAKE,1948-07-01 00:00:00,2020-08-03 00:00:00,41.9600,-121.4745,True,False
049273,VENADO,1948-07-01 00:00:00,2019-05-03 00:00:00,38.6086,-123.0180,True,False
049390,VOLTA PH,1948-07-01 00:00:00,2020-07-09 00:00:00,40.4583,-121.8663,True,False
049490,WEAVERVILLE,1948-07-01 00:00:00,2020-08-04 00:00:00,40.7367,-122.9404,True,False
049605,WHEATLAND 2 NE,1948-07-01 00:00:00,2020-06-27 00:00:00,39.0277,-121.3908,True,False
049684,WILLITS 1 NE,1989-10-02 00:00:00,2012-10-13 00:00:00,39.4194,-123.3425,True,False
049855,YOSEMITE PARK HEADQUARTERS,1948-07-01 00:00:00,2020-06-03 00:00:00,37.7503,-119.5897,True,False
050109,AKRON 4 E,1948-08-01 00:00:00,2020-08-06 00:00:00,40.1551,-103.1418,True,False
050263,ANTERO RESERVOIR,1968-05-13 00:00:00,2020-08-04 00:00:00,38.9931,-105.8915,True,False
050304,ARAPAHOE,1948-08-01 00:00:00,2020-07-07 00:00:00,38.8528,-102.1764,True,False
050372,ASPEN 1SW,1980-06-25 00:00:00,2020-08-01 00:00:00,39.1852,-106.8380,True,False
050834,BONNY DAM 2NE,1951-06-01 00:00:00,2020-06-05 00:00:00,39.6567,-102.1193,True,False
050843,BOULDER 2,1948-08-01 00:00:00,2020-08-01 00:00:00,40.0340,-105.2813,True,False
051179,BYERS 5 ENE,1948-08-01 00:00:00,2020-06-10 00:00:00,39.7406,-104.1274,True,False
051401,CASTLE ROCK,1948-08-01 00:00:00,2020-08-01 00:00:00,39.4105,-104.9058,True,False
051443,CEDAREDGE 3E,1997-02-03 00:00:00,2020-06-01 00:00:00,38.9044,-107.8913,True,False
051539,CHERAW 1 N,1948-08-06 00:00:00,2020-08-02 00:00:00,38.1150,-103.5100,True,False
051713,COCHETOPA CREEK,1948-08-01 00:00:00,2020-08-01 00:00:00,38.4431,-106.7616,True,False
023062,DENVER-STAPLETON,1948-08-01 00:00:00,2020-07-01 00:00:00,39.7675,-104.8695,False,False
052286,DINOSAUR NATL MONUMNT,1965-06-01 00:00:00,2020-05-15 00:00:00,40.2441,-108.9726,True,False
052535,ECKLEY,1948-08-01 00:00:00,2012-12-12 00:00:00,40.1097,-102.4906,True,False
052965,FLORISSANT FOSSIL BED,1974-10-01 00:00:00,2020-08-04 00:00:00,38.9127,-105.2849,True,False
053005,FORT COLLINS,1948-08-01 00:00:00,2020-08-12 00:00:00,40.5763,-105.0857,True,False
053477,GRANADA,1948-08-01 00:00:00,2020-08-06 00:00:00,38.0614,-102.3153,True,False
053500,GRAND LAKE 6 SSW,1948-08-01 00:00:00,2020-08-17 00:00:00,40.1849,-105.8666,True,False
053553,GREELEY UNC,1985-07-11 00:00:00,2020-07-16 00:00:00,40.4022,-104.6991,True,False
053579,GREENLAND 9 SE,1948-08-01 00:00:00,2020-08-03 00:00:00,39.1044,-104.7286,True,False
053584,GREENLAND 6 NE,1948-08-01 00:00:00,2020-08-02 00:00:00,39.2166,-104.7383,True,False
053662,GUNNISON 3SW,1948-08-01 00:00:00,2020-08-04 00:00:00,38.5254,-106.9672,True,False
054082,HOLYOKE,1978-07-01 00:00:00,2020-04-04 00:00:00,40.5454,-102.3412,True,False
054155,HOYT,1948-08-01 00:00:00,2020-06-23 00:00:00,39.9839,-104.0838,True,False
054172,HUGO 1 NW,1948-08-01 00:00:00,2019-10-08 00:00:00,39.1438,-103.4897,True,False
054380,JOES,1948-08-01 00:00:00,2020-07-06 00:00:00,39.6552,-102.6804,True,False
054388,JOHN MARTIN DAM,1948-08-01 00:00:00,2020-08-04 00:00:00,38.0634,-102.9298,True,False
054538,KIM 15 NNE,1948-08-01 00:00:00,2020-08-01 00:00:00,37.4536,-103.3220,True,False
054742,LAKE GEORGE 8 SW,1948-08-01 00:00:00,2020-08-01 00:00:00,38.9075,-105.4705,True,False
054877,LAWSON,1975-02-06 00:00:00,2013-09-02 00:00:00,39.7661,-105.6264,True,False
055121,LONGMONT 6 NW,1948-08-01 00:00:00,2020-07-10 00:00:00,40.2466,-105.1463,True,False
055352,MANITOU SPRINGS,1948-08-01 00:00:00,2020-08-17 00:00:00,38.8557,-104.9330,True,False
055484,MEEKER,1948-08-01 00:00:00,2020-08-03 00:00:00,40.0358,-107.9058,False,False
055706,MONTE VISTA 2W,1948-08-01 00:00:00,2020-08-01 00:00:00,37.5810,-106.1870,True,False
055765,MORRISON 1 SW,1958-01-01 00:00:00,2020-06-02 00:00:00,39.6527,-105.2030,True,False
055881,NEDERLAND 5 NNW,1996-10-04 00:00:00,2020-08-04 00:00:00,40.0361,-105.5461,True,False
055934,NEW RAYMER 21 N,2005-02-01 00:00:00,2020-08-01 00:00:00,40.9319,-103.8678,True,False
055982,NORTHGATE,1979-03-01 00:00:00,2019-11-12 00:00:00,40.9366,-106.3391,True,False
056023,NUNN,1948-08-01 00:00:00,2020-08-05 00:00:00,40.7063,-104.7833,True,False
056136,ORDWAY 21 N,1980-06-01 00:00:00,2015-07-01 00:00:00,38.5301,-103.7059,True,False
056205,OURAY NO. 2,2006-09-03 00:00:00,2020-08-01 00:00:00,38.0263,-107.6725,False,False
057033,RIFLE 3ENE,2009-09-02 00:00:00,2020-08-01 00:00:00,39.5572,-107.7261,False,False
057436,SAN LUIS 1S,2009-06-01 00:00:00,2020-08-04 00:00:00,37.1941,-105.4325,False,False
057519,SEIBERT,1955-05-05 00:00:00,2020-07-13 00:00:00,39.2951,-102.8677,True,False
057560,SHAW 4ENE,1997-01-01 00:00:00,2020-08-01 00:00:00,39.5719,-103.2922,True,False
057572,SHEEP MOUNTAIN,1988-01-04 00:00:00,2019-08-12 00:00:00,37.7150,-105.2352,True,False
057664,SIMLA,1948-08-01 00:00:00,2020-08-03 00:00:00,39.1398,-104.0879,True,False
058064,SUGARLOAF RESERVOIR,1950-10-26 00:00:00,2020-08-03 00:00:00,39.2495,-106.3713,True,False
058220,TERCIO 4 NW,1948-08-12 00:00:00,2020-08-06 00:00:00,37.0727,-105.0530,True,False
058429,TRINIDAD,1973-05-01 00:00:00,2020-08-01 00:00:00,37.1787,-104.4870,True,False
058436,TRINIDAD LAKE,1989-04-01 00:00:00,2020-08-03 00:00:00,37.1502,-104.5568,True,False
058781,WALSENBURG 1 NW,1948-08-01 00:00:00,2020-08-01 00:00:00,37.6303,-104.7957,True,False
058997,WHITE ROCK,1948-08-01 00:00:00,2020-08-01 00:00:00,37.8673,-104.1138,True,False
059096,WILLIAMS FORK DAM,1982-06-01 00:00:00,2020-08-01 00:00:00,40.0375,-106.2038,True,False
059285,YODER 2 NW,1976-09-08 00:00:00,2020-08-01 00:00:00,38.8590,-104.2426,True,False
065445,NORFOLK 2 SW,1948-05-01 00:00:00,2017-11-01 00:00:00,41.9725,-73.2208,True,False
068330,THOMASTON DAM,1961-09-14 00:00:00,2017-09-01 00:00:00,41.6931,-73.0600,True,False
076410,NEWARK AG FARM,1956-08-01 00:00:00,2019-09-03 00:00:00,39.6682,-75.7457,True,False
080845,BOCA RATON,1942-01-01 00:00:00,2020-06-22 00:00:00,26.3676,-80.1107,True,False
080975,BRANFORD,1944-08-21 00:00:00,2016-03-07 00:00:00,29.9625,-82.9108,True,False
081048,BROOKSVILLE 7 SSW,1972-01-28 00:00:00,2020-08-03 00:00:00,28.4811,-82.4353,True,False
082008,CROSS CITY 1 E,1966-06-27 00:00:00,2020-07-11 00:00:00,29.6333,-83.1053,True,False
082229,DELAND 3 NE,1986-02-21 00:00:00,2020-08-03 00:00:00,29.0667,-81.2833,True,False
082391,DOWLING PARK 1 W,1944-08-04 00:00:00,2018-11-06 00:00:00,30.2497,-83.2594,True,False
083538,GRACEVILLE 1 SW,1942-01-01 00:00:00,2020-07-10 00:00:00,30.9575,-85.5330,True,False
084095,HOMESTEAD GEN AVIATION AP,1995-07-01 00:00:00,2020-07-09 00:00:00,25.5011,-80.5500,True,False
084273,INGLIS 3 E,1942-01-01 00:00:00,2020-08-03 00:00:00,29.0248,-82.6157,True,False
084802,LAKELAND 2,2001-11-01 00:00:00,2020-08-01 00:00:00,27.9922,-82.0138,True,False
085076,LISBON,1958-12-09 00:00:00,2020-06-04 00:00:00,28.8728,-81.7844,True,False
085237,LYNNE,1942-01-01 00:00:00,2016-04-19 00:00:00,29.2003,-81.9306,True,False
085391,MARINELAND,1942-01-01 00:00:00,2016-06-01 00:00:00,29.6700,-81.2150,True,False
085612,MELBOURNE WFO,1942-01-01 00:00:00,2020-08-03 00:00:00,28.1136,-80.6540,True,False
085880,MONTICELLO 10 SW,2007-08-01 00:00:00,2020-07-01 00:00:00,30.4405,-83.9858,False,False
085895,MOORE HAVEN LOCK 1,1942-01-01 00:00:00,2020-07-22 00:00:00,26.8400,-81.0872,True,False
086240,NICEVILLE,1950-07-01 00:00:00,2020-08-04 00:00:00,30.5316,-86.4928,True,False
086323,NORTH NEW RVR CANAL 2,1942-01-01 00:00:00,2020-08-01 00:00:00,26.3354,-80.5373,False,False
086842,PANAMA CITY 5N,1971-12-01 00:00:00,2020-07-06 00:00:00,30.2491,-85.6605,True,False
086880,PARRISH,1944-08-18 00:00:00,2020-08-06 00:00:00,27.6090,-82.3476,True,False
087440,RAIFORD STATE PRISON,1949-03-19 00:00:00,2016-12-12 00:00:00,30.0678,-82.1928,True,False
087851,SAINT LEO,1944-08-17 00:00:00,2020-08-05 00:00:00,28.3378,-82.2600,True,False
087886,ST PETERSBURG,1946-02-01 00:00:00,2015-01-02 00:00:00,27.7833,-82.6333,True,False
088780,TAMIAMI TRAIL 40 MI. BEND,1942-01-01 00:00:00,2020-08-19 00:00:00,25.7608,-80.8241,True,False
088782,TAMPA BAY AREA WFO,2000-01-01 00:00:00,2020-08-04 00:00:00,27.7053,-82.4009,False,False
088841,TAVERNIER,1998-07-01 00:00:00,2020-08-12 00:00:00,25.0069,-80.5211,True,False
089010,TRAIL GLADE RANGES,1966-12-15 00:00:00,2020-08-19 00:00:00,25.7647,-80.4775,True,False
089176,VENICE,1942-01-01 00:00:00,2020-08-03 00:00:00,27.1006,-82.4364,True,False
089184,VENUS,1942-01-01 00:00:00,2020-08-05 00:00:00,27.1819,-81.3509,True,False
089219,VERO BEACH  4SE,1965-05-01 00:00:00,2020-08-01 00:00:00,27.6527,-80.4030,True,False
089415,WAUSAU,1965-08-01 00:00:00,2020-04-17 00:00:00,30.6323,-85.5976,False,False
089795,WOODRUFF DAM,1956-04-01 00:00:00,2020-07-02 00:00:00,30.7219,-84.8741,True,False
090044,ADAIRSVILLE 5 SE,1986-09-18 00:00:00,2020-07-01 00:00:00,34.3407,-84.8347,True,False
091619,CARNESVILLE,1948-06-01 00:00:00,2020-08-03 00:00:00,34.3656,-83.2328,True,False
092361,CRISP CO POWER DAM,2002-06-01 00:00:00,2020-07-01 00:00:00,31.8453,-83.9409,True,False
092485,DALLAS 7 NE,1948-06-01 00:00:00,2020-06-28 00:00:00,33.9982,-84.7510,True,False
092844,DUBLIN 2,1948-06-01 00:00:00,2020-07-02 00:00:00,32.5574,-82.8999,True,False
093028,EDISON,1948-06-01 00:00:00,2020-07-02 00:00:00,31.5663,-84.7338,True,False
093312,FARGO,1948-06-01 00:00:00,2016-04-06 00:00:00,30.6908,-82.5633,True,False
093460,FOLKSTON 3 SW,1948-07-01 00:00:00,2016-12-02 00:00:00,30.7997,-82.0313,True,False
094204,HAZLEHURST,1948-06-01 00:00:00,2016-03-03 00:00:00,31.8878,-82.5808,True,False
094623,JACKSON DAM,1948-06-01 00:00:00,2020-07-20 00:00:00,33.3200,-83.8436,True,False
094671,JESUP,1948-06-01 00:00:00,2019-10-08 00:00:00,31.6081,-81.8797,True,False
094941,CHICKAMAUGA 2 SW,1948-06-01 00:00:00,2020-07-01 00:00:00,34.8530,-85.3142,True,False
095165,LEXINGTON,1952-01-15 00:00:00,2018-06-01 00:00:00,33.8705,-83.1135,True,False
095314,LOUISVILLE 1 E,1948-06-01 00:00:00,2020-07-02 00:00:00,33.0125,-82.3914,True,False
096879,PEARSON,1948-06-01 00:00:00,2016-12-22 00:00:00,31.2928,-82.8422,True,False
097605,ROME 8 SW,1948-06-01 00:00:00,2020-07-02 00:00:00,34.1650,-85.2583,True,False
098657,THE ROCK RANCH,1948-06-01 00:00:00,2020-07-20 00:00:00,32.9642,-84.2303,True,False
098974,VALDOSTA 2 S,1954-10-01 00:00:00,2017-06-01 00:00:00,30.8055,-83.2736,True,False
099291,WEST POINT,1983-02-03 00:00:00,2020-07-13 00:00:00,32.8861,-85.1838,True,False
099486,WINTERVILLE,1997-08-01 00:00:00,2020-07-01 00:00:00,33.9664,-83.2911,True,False
101018,BOISE LUCKY PEAK DAM,1951-01-01 00:00:00,2020-02-06 00:00:00,43.5253,-116.0542,True,False
101079,BONNERS FERRY,1948-07-01 00:00:00,2019-10-11 00:00:00,48.6928,-116.3104,True,False
101956,COEUR D'ALENE,1948-07-01 00:00:00,2019-08-12 00:00:00,47.6821,-116.7967,True,False
102159,COTTONWOOD 2 WSW,1948-08-01 00:00:00,2020-07-01 00:00:00,46.0336,-116.3919,True,False
102575,DIXIE,1978-08-01 00:00:00,2020-07-09 00:00:00,45.5525,-115.4605,True,False
102707,DUBOIS EXPERIMENT STATION,1948-07-01 00:00:00,2020-08-04 00:00:00,44.2436,-112.2005,True,False
102845,DWORSHAK FISH HATCHERY,1966-11-01 00:00:00,2020-04-28 00:00:00,46.5023,-116.3216,True,False
102875,ELK CITY 1NE,1979-07-02 00:00:00,2015-10-20 00:00:00,45.8356,-115.4610,True,False
103143,FENN RANGER STATION,1952-04-24 00:00:00,2020-06-16 00:00:00,46.0930,-115.5355,True,False
103677,GOODING 1 S,1952-09-01 00:00:00,2020-02-24 00:00:00,42.9183,-114.7664,True,False
103732,GRACE,1952-11-23 00:00:00,2020-08-07 00:00:00,42.5872,-111.7275,True,False
103773,GRANGEVILLE 1N,2000-02-10 00:00:00,2020-07-01 00:00:00,45.9397,-116.1211,False,False
103811,GRASMERE 3 S,1963-04-03 00:00:00,2020-02-24 00:00:00,42.3450,-115.8836,True,False
104230,HENRY,1971-09-23 00:00:00,2012-10-31 00:00:00,42.9419,-111.4361,True,False
104456,IDAHO FALLS 16 SE,1960-04-12 00:00:00,2020-08-03 00:00:00,43.3455,-111.7847,True,False
104598,ISLAND PARK,2000-11-16 00:00:00,2020-06-01 00:00:00,44.4189,-111.3714,True,False
104845,KETCHUM RANGER STATION,1973-03-01 00:00:00,2020-08-05 00:00:00,43.6841,-114.3602,True,False
105177,LEADORE NO. 2,2009-08-01 00:00:00,2020-07-02 00:00:00,44.6830,-113.3622,False,False
105462,MACKAY LOST RIVER RS,1948-07-01 00:00:00,2020-01-31 00:00:00,43.9178,-113.6152,True,False
105567,MALTA,1952-11-25 00:00:00,2016-01-19 00:00:00,42.3061,-113.3688,True,False
105708,MCCALL,1971-01-01 00:00:00,2020-02-04 00:00:00,44.8871,-116.1046,True,False
106174,MOUNTAIN HOME,1948-07-01 00:00:00,2017-04-05 00:00:00,43.1261,-115.7119,True,False
106230,MULLAN,1972-06-01 00:00:00,2019-11-05 00:00:00,47.4661,-115.8113,True,False
106250,MURPHY (DESERT) HOT SPRINGS,1987-12-09 00:00:00,2020-02-02 00:00:00,42.0264,-115.3596,False,False
106586,OLA,1948-07-01 00:00:00,2019-06-01 00:00:00,44.1758,-116.2827,True,False
107269,PORTHILL 1 SW,1971-01-01 00:00:00,2019-10-11 00:00:00,48.9938,-116.5024,True,False
107327,PRAIRIE,1960-02-01 00:00:00,2020-02-13 00:00:00,43.5063,-115.5716,True,False
108137,SANDPOINT EXP STATION,1960-01-01 00:00:00,2019-10-11 00:00:00,48.2943,-116.5627,True,False
108412,SILVER CITY 5 W,1982-12-01 00:00:00,2020-02-25 00:00:00,43.0022,-116.8316,True,False
109065,TETONIA EXPERIMENT STN,1952-05-17 00:00:00,2020-08-03 00:00:00,43.8563,-111.2769,True,False
109158,TOPAZ,1978-05-10 00:00:00,2018-05-12 00:00:00,42.6251,-112.0879,True,False
109951,YELLOWPINE 7 S,1970-08-05 00:00:00,2017-10-19 00:00:00,44.8541,-115.5115,True,False
109963,YELLOWPINE BAR,1987-01-01 00:00:00,2013-05-01 00:00:00,45.5450,-115.2514,True,False
110082,ALEXIS 1 SW,1948-07-01 00:00:00,2020-08-05 00:00:00,41.0579,-90.5654,True,False
110281,ASHLEY,1965-11-18 00:00:00,2020-08-02 00:00:00,38.3125,-89.2724,True,False
110330,AUGUSTA,1948-07-01 00:00:00,2020-08-02 00:00:00,40.2333,-90.9471,True,False
013802,BELLEVILLE SCOTT AAF,1948-07-01 00:00:00,2020-08-03 00:00:00,38.5500,-89.8500,False,False
110583,BELVIDERE,1948-07-01 00:00:00,2019-09-09 00:00:00,42.2550,-88.8640,True,False
093809,CAIRO 3N,1948-07-01 00:00:00,2020-07-22 00:00:00,37.0422,-89.1855,False,False
111290,CARLYLE RESERVOIR,1970-07-01 00:00:00,2020-08-05 00:00:00,38.6249,-89.3630,True,False
111302,CARMI 3,1988-03-01 00:00:00,2020-06-02 00:00:00,38.0733,-88.1805,True,False
111577,CHICAGO MIDWAY AP 3SW,1948-07-01 00:00:00,2019-09-01 00:00:00,41.7372,-87.7775,True,False
111664,CISNE 2 S,1946-07-01 00:00:00,2020-05-01 00:00:00,38.5047,-88.4094,True,False
111743,CLINTON 1SSW,2003-06-02 00:00:00,2020-08-03 00:00:00,40.1375,-88.9675,True,False
112011,CRETE,1948-07-01 00:00:00,2019-09-04 00:00:00,41.4492,-87.6221,True,False
112140,DANVILLE,1951-05-02 00:00:00,2020-08-01 00:00:00,40.1391,-87.6479,True,False
112193,DECATUR WTP,1983-11-01 00:00:00,2020-08-05 00:00:00,39.8288,-88.9505,True,False
112353,DIXON SPRINGS AGRIC CNTR,1967-09-21 00:00:00,2020-06-02 00:00:00,37.4388,-88.6678,True,False
112687,EFFINGHAM 3SW,1948-07-01 00:00:00,2020-06-25 00:00:00,39.1181,-88.6244,True,False
112923,FAIRBURY  WWTP,1948-07-01 00:00:00,2019-09-01 00:00:00,40.7511,-88.4983,True,False
113106,FLORA,2003-05-01 00:00:00,2020-08-03 00:00:00,38.6780,-88.4798,True,False
113262,FREEPORT WASTE WTR PL,1948-07-01 00:00:00,2020-08-01 00:00:00,42.2972,-89.6038,True,False
113290,FULTON L&D # 13,1948-07-01 00:00:00,2020-08-04 00:00:00,41.8978,-90.1545,False,False
113666,GREENFIELD,1948-07-01 00:00:00,2020-08-14 00:00:00,39.3424,-90.2060,True,False
113879,HARRISBURG,1988-06-01 00:00:00,2020-06-02 00:00:00,37.7408,-88.5244,True,False
114198,HOOPESTON,1948-07-01 00:00:00,2020-08-16 00:00:00,40.4664,-87.6851,True,False
114317,HUTSONVILLE,1957-07-24 00:00:00,2020-08-18 00:00:00,39.1137,-87.6563,True,False
114355,ILLINOIS CITY DAM 16,1948-07-01 00:00:00,2020-08-05 00:00:00,41.4255,-91.0094,True,False
114442,JACKSONVILLE 2E,1963-04-07 00:00:00,2020-08-03 00:00:00,39.7346,-90.1979,True,False
114603,KANKAKEE METRO WASTEWATER,1948-07-01 00:00:00,2019-09-10 00:00:00,41.1351,-87.8856,True,False
114629,KASKASKIA RIVER NAVIGATION LOCK,1974-04-01 00:00:00,2020-08-11 00:00:00,37.9834,-89.9468,True,False
114710,KEWANEE 1 E,1951-05-01 00:00:00,2020-08-01 00:00:00,41.2429,-89.8997,True,False
114805,LACON,1984-02-21 00:00:00,2020-08-05 00:00:00,41.0187,-89.4153,True,False
114879,LANARK,1948-07-01 00:00:00,2020-08-03 00:00:00,42.0919,-89.8421,True,False
114957,LAWRENCEVILLE 2WSW,1992-03-03 00:00:00,2020-08-03 00:00:00,38.7239,-87.7196,True,False
115272,MACKINAW 3WSW,2001-11-01 00:00:00,2018-01-31 00:00:00,40.5241,-89.4207,True,False
115493,MC HENRY,1948-07-01 00:00:00,2019-08-29 00:00:00,42.3500,-88.2667,True,False
115768,MONMOUTH,1991-08-04 00:00:00,2020-08-03 00:00:00,40.9443,-90.6381,True,False
115825,MORRIS 1 NW,1995-11-01 00:00:00,2019-09-07 00:00:00,41.3708,-88.4336,False,False
115841,MORRISONVILLE,1948-07-01 00:00:00,2020-08-05 00:00:00,39.4157,-89.4615,True,False
115983,MURPHYSBORO WATERWORKS,1948-07-01 00:00:00,2020-06-01 00:00:00,37.7667,-89.3167,True,False
116157,NEWTON,2003-08-01 00:00:00,2020-08-02 00:00:00,38.9916,-88.1828,True,False
116610,PARIS STP,1993-03-01 00:00:00,2020-08-12 00:00:00,39.6185,-87.6672,True,False
116819,PIPER CITY,1949-02-01 00:00:00,2012-12-14 00:00:00,40.7569,-88.1827,True,False
117014,PROPHETSTOWN,1948-07-01 00:00:00,2020-08-18 00:00:00,41.6752,-89.9374,True,False
117077,QUINCY DAM 21,1948-07-01 00:00:00,2019-04-10 00:00:00,39.9035,-91.4284,True,False
014806,RANTOUL,1948-07-01 00:00:00,2020-08-02 00:00:00,40.3131,-88.1596,False,False
117187,REND LAKE DAM,1972-03-01 00:00:00,2020-06-04 00:00:00,38.0405,-88.9883,True,False
117391,ROCK ISLAND L&D 15,1985-07-26 00:00:00,2020-08-04 00:00:00,41.5180,-90.5647,True,False
117833,SHABBONA 3S,1953-12-01 00:00:00,2019-09-09 00:00:00,41.7327,-88.8643,True,False
117876,SHELBYVILLE DAM,1970-07-01 00:00:00,2020-08-16 00:00:00,39.4079,-88.7739,True,False
118020,SMITHLAND LOCK & DAM,1980-10-01 00:00:00,2020-06-01 00:00:00,37.1644,-88.4311,True,False
118389,SULLIVAN 3S,1948-07-01 00:00:00,2020-08-03 00:00:00,39.5608,-88.6090,True,False
118740,CHAMPAIGN 3S,1959-01-01 00:00:00,2020-08-03 00:00:00,40.0840,-88.2404,True,False
118781,VANDALIA,1948-07-01 00:00:00,2020-08-13 00:00:00,38.9579,-89.0952,True,False
118916,WALNUT,2005-06-01 00:00:00,2020-08-03 00:00:00,41.5603,-89.6024,True,False
119193,WEST SALEM,1971-02-01 00:00:00,2020-06-16 00:00:00,38.5250,-88.0130,True,False
119816,YATES CITY,1950-12-01 00:00:00,2020-08-01 00:00:00,40.7779,-90.0073,True,False
120132,ALPINE 2 NE,1949-02-01 00:00:00,2020-08-04 00:00:00,39.5739,-85.1582,True,False
120177,ANDERSON SEWAGE PLANT,1974-07-16 00:00:00,2020-06-30 00:00:00,40.1117,-85.7163,True,False
120200,ANGOLA,1977-05-12 00:00:00,2020-07-02 00:00:00,41.6639,-85.0183,True,False
120482,BATESVILLE WATER AND GAS UTILITY,1948-07-01 00:00:00,2020-08-03 00:00:00,39.2967,-85.2187,True,False
120830,BLUFFTON 6N,1971-07-01 00:00:00,2020-07-01 00:00:00,40.8143,-85.1546,True,False
120922,BRAZIL,1948-07-01 00:00:00,2020-08-03 00:00:00,39.5108,-87.1241,True,False
121147,BURLINGTON,1950-11-03 00:00:00,2020-08-02 00:00:00,40.4835,-86.3961,True,False
121256,CANNELTON,1971-10-01 00:00:00,2020-06-02 00:00:00,37.8994,-86.7072,True,False
121417,CHALMERS 5 W,2008-08-01 00:00:00,2020-07-01 00:00:00,40.6653,-86.9550,True,True
121739,COLUMBIA CITY,1948-07-01 00:00:00,2020-07-02 00:00:00,41.1452,-85.4898,True,False
121752,COLUMBUS UTILITIES,1948-07-01 00:00:00,2020-08-04 00:00:00,39.2106,-85.8883,True,False
121873,CRAWFORDSVILLE 6 SE,1988-02-01 00:00:00,2020-08-05 00:00:00,40.0028,-86.8011,True,False
122309,DUBOIS SRN IN FORAGE FARM,1957-01-01 00:00:00,2020-06-05 00:00:00,38.4558,-86.6983,True,False
122825,FARMLAND 5 NNW,1949-03-01 00:00:00,2020-08-04 00:00:00,40.2538,-85.1484,True,False
123082,FRANKFORT DISPOSAL,1980-06-01 00:00:00,2020-08-05 00:00:00,40.2986,-86.5066,True,False
123091,FRANKLIN WWTP,2001-08-01 00:00:00,2020-08-03 00:00:00,39.4684,-86.0412,True,False
123104,FREELANDVILLE,1985-04-04 00:00:00,2014-02-04 00:00:00,38.8672,-87.3083,True,False
123206,GARRETT,1960-12-05 00:00:00,2020-03-03 00:00:00,41.3415,-85.1292,True,False
123418,GOSHEN 3SW,1961-11-01 00:00:00,2020-07-10 00:00:00,41.5575,-85.8825,True,False
123714,HARRISON-CRAWFORD S F,1974-08-06 00:00:00,2020-04-06 00:00:00,38.1975,-86.2686,False,False
123777,HARTFORD CITY 4 ESE,1948-07-01 00:00:00,2020-07-01 00:00:00,40.4355,-85.2891,True,False
124181,HUNTINGTON,1948-07-01 00:00:00,2020-07-01 00:00:00,40.8555,-85.4980,True,False
124286,INDIANAPOLIS ZOO,1991-05-01 00:00:00,2020-08-03 00:00:00,39.7690,-86.1850,True,False
124730,LAGRANGE,1962-06-02 00:00:00,2015-12-02 00:00:00,41.6474,-85.4121,True,False
124782,LAKEVILLE,1948-07-01 00:00:00,2020-07-01 00:00:00,41.5269,-86.2692,True,False
124837,LAPORTE,1978-04-01 00:00:00,2020-07-01 00:00:00,41.6116,-86.7297,True,False
124908,LEBANON WATER WORKS,1948-07-01 00:00:00,2020-08-06 00:00:00,40.0516,-86.4750,True,False
124973,LEWISVILLE,1948-07-01 00:00:00,2020-08-03 00:00:00,39.8201,-85.3242,True,False
125337,MARION 2 N,1953-06-13 00:00:00,2020-07-01 00:00:00,40.5800,-85.6586,True,False
125394,MARSHALL,2002-01-01 00:00:00,2020-08-01 00:00:00,39.8438,-87.1875,False,False
125407,MARTINSVILLE 2 SW,1962-06-18 00:00:00,2020-08-03 00:00:00,39.4039,-86.4531,True,False
125535,MEDARYVILLE 5 N,1948-07-01 00:00:00,2017-10-01 00:00:00,41.1588,-86.9013,True,False
126151,NEWBURGH LOCK & DAM,1961-12-01 00:00:00,2020-06-01 00:00:00,37.9325,-87.3744,True,False
126864,PERU,1948-07-01 00:00:00,2020-07-03 00:00:00,40.7646,-86.0740,True,False
127069,PORTLAND WATER WORKS,1948-07-01 00:00:00,2019-10-29 00:00:00,40.4667,-84.9667,True,False
127298,RENSSELAER,1970-06-05 00:00:00,2019-09-12 00:00:00,40.9239,-87.1754,True,False
127482,ROCHESTER,1948-10-13 00:00:00,2020-07-01 00:00:00,41.0665,-86.2096,True,False
127930,SEYMOUR HIWAY GARAGE,1948-07-01 00:00:00,2020-08-10 00:00:00,38.9616,-85.8608,True,False
127999,SHELBYVILLE SEWAGE PLANT,1971-01-01 00:00:00,2020-08-03 00:00:00,39.5282,-85.7914,True,False
128036,SHOALS 8 S,1948-07-01 00:00:00,2020-08-02 00:00:00,38.5529,-86.7944,True,False
128442,STENDAL,1995-11-01 00:00:00,2020-06-02 00:00:00,38.2691,-87.1630,False,False
128784,TIPTON 5 SW,1983-05-01 00:00:00,2020-08-01 00:00:00,40.2233,-86.1086,True,False
128967,J.T. MYERS LOCKS & DAM,1974-09-11 00:00:00,2020-06-09 00:00:00,37.7952,-87.9930,True,False
129174,WALDRON 2 W,1950-12-05 00:00:00,2020-08-06 00:00:00,39.4538,-85.6963,True,False
129430,WEST LAFAYETTE 6 NW,1953-08-08 00:00:00,2020-08-11 00:00:00,40.4750,-86.9919,True,False
129724,WOODBURN 3N,2009-01-12 00:00:00,2020-07-01 00:00:00,41.1645,-84.8482,False,False
130149,ALLERTON,1948-08-01 00:00:00,2020-07-15 00:00:00,40.7039,-93.3703,True,False
130200,AMES 8 WSW,1964-09-06 00:00:00,2020-07-02 00:00:00,42.0208,-93.7741,True,False
130364,ATLANTIC 1 NE,1951-01-08 00:00:00,2020-07-01 00:00:00,41.4175,-95.0041,True,False
130536,BEACONSFIELD,1969-07-09 00:00:00,2020-07-01 00:00:00,40.8069,-94.0474,True,False
130608,BELLEVUE L AND D 12,1948-08-11 00:00:00,2020-08-03 00:00:00,42.2611,-90.4231,True,False
130853,BOYER 4 SE,1950-10-01 00:00:00,2020-07-01 00:00:00,42.1255,-95.1886,True,False
131060,BURLINGTON 2S,1964-12-16 00:00:00,2020-08-01 00:00:00,40.7747,-91.1165,True,False
131126,CALMAR NE,2009-02-03 00:00:00,2020-08-04 00:00:00,43.1876,-91.8620,False,False
131245,CARSON 3NNE,1950-10-01 00:00:00,2020-07-18 00:00:00,41.2738,-95.4025,True,False
131257,CASCADE,1948-08-01 00:00:00,2020-08-14 00:00:00,42.2979,-91.0116,True,False
131354,CENTERVILLE 4 SSW,1948-08-01 00:00:00,2020-07-01 00:00:00,40.6833,-92.9000,True,False
131363,CENTRAL CITY,1955-12-17 00:00:00,2020-08-03 00:00:00,42.2001,-91.5233,True,False
131442,CHEROKEE 3 N,1948-08-01 00:00:00,2020-08-04 00:00:00,42.7833,-95.5500,True,False
132041,DAKOTA CITY,2009-11-02 00:00:00,2020-07-01 00:00:00,42.7255,-94.1952,False,False
132240,DEXTER,1948-08-01 00:00:00,2020-07-02 00:00:00,41.5077,-94.2269,False,False
132977,FOREST CITY 2 NNE,1948-08-01 00:00:00,2020-07-01 00:00:00,43.2844,-93.6305,True,False
133473,GRINNELL 3 SW,1948-08-01 00:00:00,2019-11-01 00:00:00,41.7200,-92.7490,True,False
133944,HORNICK 5S,1948-08-01 00:00:00,2018-04-24 00:00:00,42.1558,-96.0830,True,False
134101,IOWA CITY,1979-09-01 00:00:00,2020-08-03 00:00:00,41.6093,-91.5051,True,False
134142,IOWA FALLS,1948-08-01 00:00:00,2020-07-01 00:00:00,42.5188,-93.2536,True,False
134174,IRWIN 3 ESE,1950-10-01 00:00:00,2020-08-02 00:00:00,41.7750,-95.1525,True,False
134381,KEOKUK LOCK DAM 19,1948-08-01 00:00:00,2020-08-07 00:00:00,40.3968,-91.3749,True,False
134502,KNOXVILLE,1948-08-01 00:00:00,2020-07-13 00:00:00,41.3247,-93.1008,True,False
134585,LAMONI,1948-08-01 00:00:00,2020-07-06 00:00:00,40.6233,-93.9343,True,False
134746,LENOX,1948-08-01 00:00:00,2020-07-02 00:00:00,40.8747,-94.5717,True,False
134963,LOWDEN,1987-06-25 00:00:00,2020-08-01 00:00:00,41.8604,-90.9222,True,False
135198,MARSHALLTOWN,1948-08-01 00:00:00,2020-07-01 00:00:00,42.0647,-92.9244,True,False
135315,MCGREGOR,1951-10-05 00:00:00,2020-08-03 00:00:00,43.0240,-91.1746,True,False
135584,MISSOURI VALLEY 2 WSW,1948-08-01 00:00:00,2020-08-03 00:00:00,41.5500,-95.9333,True,False
135769,MOUNT AYR,1948-08-01 00:00:00,2020-07-01 00:00:00,40.7052,-94.2427,True,False
135796,MOUNT PLEASANT 1 SSW,1948-08-01 00:00:00,2020-08-06 00:00:00,40.9486,-91.5647,True,False
135823,MOVILLE,1948-08-01 00:00:00,2020-08-01 00:00:00,42.4916,-96.0688,True,False
136076,NORTH ENGLISH,1948-08-01 00:00:00,2020-08-05 00:00:00,41.5170,-92.0597,True,False
136190,OCHEYEDAN,2005-12-01 00:00:00,2013-09-01 00:00:00,43.4144,-95.5313,True,False
136975,REMSEN,1948-08-01 00:00:00,2020-08-04 00:00:00,42.8169,-95.9711,True,False
137058,RINGSTED,1948-08-14 00:00:00,2020-07-01 00:00:00,43.2957,-94.5108,True,False
137326,ST ANSGAR,1948-08-09 00:00:00,2020-08-02 00:00:00,43.3817,-92.9232,True,False
137340,ST CHARLES,1948-08-01 00:00:00,2020-07-22 00:00:00,41.2875,-93.8078,True,False
137572,SHEFFIELD 3 NW,1948-08-01 00:00:00,2020-07-13 00:00:00,42.9216,-93.2827,True,False
137582,SHELBY,1950-10-01 00:00:00,2019-11-15 00:00:00,41.5116,-95.4413,True,False
137602,SHELL ROCK 1 SW,1948-08-01 00:00:00,2020-07-15 00:00:00,42.7042,-92.5906,True,False
137613,SHENANDOAH,2009-06-01 00:00:00,2020-08-03 00:00:00,40.7719,-95.3568,True,True
137664,SIBLEY,1991-01-01 00:00:00,2020-08-06 00:00:00,43.4047,-95.7483,True,False
137700,SIOUX CENTER 2 SE,1948-08-01 00:00:00,2020-08-03 00:00:00,43.0558,-96.1525,True,False
137774,SOLDIER,1948-08-01 00:00:00,2020-07-11 00:00:00,41.9811,-95.7769,True,False
137844,SPENCER 1 N,1948-09-01 00:00:00,2020-08-01 00:00:00,43.1652,-95.1466,True,False
138009,STRAWBERRY POINT,1948-08-06 00:00:00,2020-08-01 00:00:00,42.6853,-91.5330,True,False
138315,TRAER,1948-08-01 00:00:00,2020-07-01 00:00:00,42.1865,-92.4722,True,False
138646,STANTON 4N,1948-08-01 00:00:00,2020-08-02 00:00:00,41.0458,-95.0869,True,False
138688,WASHINGTON,1948-08-01 00:00:00,2020-08-01 00:00:00,41.2824,-91.7078,True,False
138806,WEBSTER CITY,1948-08-01 00:00:00,2020-07-01 00:00:00,42.4685,-93.7974,True,False
139164,WOODBINE,1948-08-01 00:00:00,2012-08-01 00:00:00,41.7450,-95.7091,True,False
140326,ARLINGTON,1978-10-25 00:00:00,2020-06-30 00:00:00,37.8894,-98.1785,True,False
140441,ATWOOD 8SSE,1964-04-22 00:00:00,2019-02-13 00:00:00,39.6980,-101.0039,True,False
140637,BEAUMONT,1948-08-01 00:00:00,2020-07-30 00:00:00,37.6557,-96.5352,True,False
140957,BONNER SPRINGS,1988-03-01 00:00:00,2020-07-01 00:00:00,39.0636,-94.8960,True,False
141233,CALDWELL,1948-08-01 00:00:00,2020-07-10 00:00:00,37.0403,-97.6101,True,False
141351,CASSODAY 2SE,1948-08-01 00:00:00,2020-07-01 00:00:00,38.0212,-96.6036,True,False
141404,CENTERVILLE 4SW,1994-12-01 00:00:00,2020-07-01 00:00:00,38.1937,-95.0724,True,False
141612,CLINTON LAKE,1977-04-13 00:00:00,2020-03-09 00:00:00,38.9407,-95.3396,True,False
141699,COLBY 1SW,1950-01-01 00:00:00,2020-07-02 00:00:00,39.3925,-101.0689,True,False
141730,COLLYER 10 S,1949-08-01 00:00:00,2020-08-01 00:00:00,38.8971,-100.1135,True,False
141740,COLUMBUS 6 NNW,1948-08-01 00:00:00,2020-08-03 00:00:00,37.2500,-94.8667,True,False
142432,ELKHART 6 NNE,1949-01-01 00:00:00,2020-08-06 00:00:00,37.0833,-101.8500,True,False
142560,ENGLEWOOD 1 NW,1948-08-01 00:00:00,2008-10-21 00:00:00,37.0459,-99.9964,True,False
142582,ERIE,1997-09-01 00:00:00,2020-07-01 00:00:00,37.5668,-95.2458,True,False
142686,FALL RIVER LAKE,1948-11-01 00:00:00,2020-07-30 00:00:00,37.6475,-96.0780,True,False
142938,GALATIA 4E,1982-11-01 00:00:00,2020-04-23 00:00:00,38.6366,-98.8722,True,False
142980,GARDEN CITY EXP STA,1948-08-01 00:00:00,2020-08-03 00:00:00,37.9930,-100.8121,True,False
143248,GRENOLA 1 N,1948-08-01 00:00:00,2020-07-07 00:00:00,37.3594,-96.4496,True,False
143527,HAYS 1 S,1948-08-01 00:00:00,2020-08-01 00:00:00,38.8586,-99.3358,True,False
143554,HEALY,1948-08-01 00:00:00,2020-08-01 00:00:00,38.6002,-100.6196,True,False
143665,HILL CITY 1E,1983-10-01 00:00:00,2020-07-07 00:00:00,39.3618,-99.8279,True,False
143686,HILLSDALE LAKE,1985-11-26 00:00:00,2020-07-01 00:00:00,38.6645,-94.8901,True,False
143954,INDEPENDENCE,1997-06-02 00:00:00,2020-07-01 00:00:00,37.2363,-95.7002,True,False
143984,IOLA 1 W,1951-01-01 00:00:00,2020-07-07 00:00:00,37.9233,-95.4241,True,False
143997,IONIA,1948-08-01 00:00:00,2020-07-02 00:00:00,39.6611,-98.3483,True,False
144178,KANOPOLIS LAKE,1948-08-01 00:00:00,2020-07-01 00:00:00,38.6078,-97.9596,True,False
144341,KIOWA,1948-08-01 00:00:00,2020-08-06 00:00:00,37.0174,-98.4899,True,False
145039,MARION RESERVOIR,1966-05-11 00:00:00,2020-06-30 00:00:00,38.3779,-97.0754,True,False
145210,MELVERN LAKE,1973-04-01 00:00:00,2020-03-02 00:00:00,38.5039,-95.7037,True,False
145306,MILFORD LAKE,1967-07-11 00:00:00,2020-03-02 00:00:00,39.0745,-96.8982,True,False
145536,MOUND VALLEY 3 WSW,1957-10-04 00:00:00,2020-07-01 00:00:00,37.1873,-95.4508,True,False
145787,NORCATUR 3 WSW,1948-08-01 00:00:00,2020-07-04 00:00:00,39.8135,-100.2417,True,False
145852,NORTON DAM,1963-04-03 00:00:00,2020-07-01 00:00:00,39.8114,-99.9386,True,False
145888,OAKLEY 4W,1949-08-01 00:00:00,2020-07-06 00:00:00,39.1130,-100.9447,True,False
146333,PERRY LAKE,1970-02-09 00:00:00,2020-01-31 00:00:00,39.1174,-95.4101,True,False
146374,PHILLIPSBURG,1948-08-01 00:00:00,2020-07-01 00:00:00,39.7667,-99.3167,True,False
146498,POMONA LAKE,1963-07-08 00:00:00,2020-03-02 00:00:00,38.6449,-95.5660,True,False
147756,STILWELL 1N,1982-10-01 00:00:00,2020-07-02 00:00:00,38.7814,-94.6689,True,False
147922,SUBLETTE 7WSW,1958-02-24 00:00:00,2020-08-21 00:00:00,37.4415,-100.9793,True,False
148235,TRIBUNE 1W,1948-08-01 00:00:00,2020-07-01 00:00:00,38.4661,-101.7730,True,False
148250,TROY 3N,1988-03-22 00:00:00,2020-07-05 00:00:00,39.8283,-95.0880,True,False
148293,UNIONTOWN,1982-10-13 00:00:00,2016-08-03 00:00:00,37.8488,-94.9765,True,False
148535,WALLACE,1948-09-01 00:00:00,2020-07-01 00:00:00,38.9167,-101.5833,True,False
148847,WICHITA WX,2010-05-01 00:00:00,2020-07-30 00:00:00,37.6552,-97.4430,False,False
148946,WILSON LAKE,1964-09-23 00:00:00,2020-07-01 00:00:00,38.9667,-98.4890,True,False
150381,BARBOURVILLE,1948-08-01 00:00:00,2016-09-16 00:00:00,36.8825,-83.8819,True,False
150450,BAXTER,1948-08-01 00:00:00,2016-01-01 00:00:00,36.8582,-83.3302,True,False
150611,BENTON,1948-08-01 00:00:00,2020-06-02 00:00:00,36.8580,-88.3363,True,False
151227,CALHOUN LOCK 2,1956-10-01 00:00:00,2020-06-25 00:00:00,37.5319,-87.2669,True,False
151631,CLINTON,1948-08-01 00:00:00,2020-05-09 00:00:00,36.6833,-89.0000,True,False
152775,FALMOUTH,1975-02-01 00:00:00,2020-08-06 00:00:00,38.6873,-84.3585,True,False
152979,FORDSVILLE,1971-05-01 00:00:00,2020-04-02 00:00:00,37.6371,-86.7206,True,False
153798,HERNDON 5S,1948-08-01 00:00:00,2020-06-02 00:00:00,36.6702,-87.5588,True,False
153929,HODGENVILLE LINCOLN P,1948-08-01 00:00:00,2020-03-07 00:00:00,37.5316,-85.7350,True,False
154948,LOUISA 5W,1996-12-04 00:00:00,2020-07-01 00:00:00,38.1250,-82.6934,True,False
154955,LOUISVILLE MCALPINE,1982-07-01 00:00:00,2020-04-21 00:00:00,38.2778,-85.7917,True,False
155067,MADISONVILLE,1949-03-01 00:00:00,2020-06-01 00:00:00,37.3475,-87.5238,True,False
155243,MAYSVILLE WASTEWATER TREATMENT PLANT,1948-08-01 00:00:00,2020-08-06 00:00:00,38.6869,-83.7872,True,False
156012,OLIVE HILL 5NE,1948-08-01 00:00:00,2019-02-28 00:00:00,38.3423,-83.1038,True,False
156170,PARIS,1971-11-01 00:00:00,2020-06-01 00:00:00,38.2052,-84.2382,True,False
157215,SCOTTSVILLE,1984-10-01 00:00:00,2020-06-21 00:00:00,36.7462,-86.2259,True,False
157473,SMITHFIELD 4 S,1948-08-01 00:00:00,2020-06-01 00:00:00,38.3409,-85.2799,True,False
157622,STAFFORDSVILLE 2 NW,1982-05-21 00:00:00,2020-01-06 00:00:00,37.8370,-82.8622,False,False
157677,STEARNS 2S,1948-08-01 00:00:00,2015-05-04 00:00:00,36.6736,-84.4791,True,False
157948,TAYLORSVILLE 2SW,2003-09-05 00:00:00,2020-04-02 00:00:00,38.0144,-85.3713,True,False
158070,TOMPKINSVILLE 9NW,1950-12-01 00:00:00,2015-12-09 00:00:00,36.8136,-85.7080,True,False
158719,WILLISBURG,1968-10-24 00:00:00,2017-08-14 00:00:00,37.8012,-85.1127,False,False
158824,WOODBURY,1948-08-01 00:00:00,2020-05-31 00:00:00,37.1852,-86.6335,True,False
161287,BUNKIE,1977-01-01 00:00:00,2010-04-15 00:00:00,30.9594,-92.1786,True,False
161411,CALHOUN RESEARCH STA,1968-04-10 00:00:00,2016-08-02 00:00:00,32.5133,-92.3487,True,False
161899,CLINTON 5 SE,1974-07-01 00:00:00,2017-03-21 00:00:00,30.8177,-90.9733,True,False
162534,DONALDSONVILLE 4 SW,1988-06-01 00:00:00,2019-04-01 00:00:00,30.0719,-91.0278,True,False
164030,HAMMOND 5 E,1984-01-01 00:00:00,2019-02-07 00:00:00,30.5030,-90.3772,True,False
164696,JENA,1986-02-04 00:00:00,2020-07-09 00:00:00,31.6782,-92.1288,True,False
164700,JENNINGS,1970-03-01 00:00:00,2010-05-01 00:00:00,30.2002,-92.6641,True,False
164739,JONESVILLE LOCKS,1972-04-06 00:00:00,2020-04-01 00:00:00,31.4825,-91.8627,True,False
165021,LAFAYETTE,1952-03-10 00:00:00,2010-06-03 00:00:00,30.2191,-92.0650,True,False
165287,LEESVILLE 6 SSW,1994-08-03 00:00:00,2010-05-25 00:00:00,31.0516,-93.2788,True,False
165620,LSU BEN-HUR FARM,1982-05-01 00:00:00,2013-01-23 00:00:00,30.3644,-91.1672,True,False
165874,MANSFIELD 4 NW,1996-10-01 00:00:00,2020-06-16 00:00:00,32.0712,-93.7588,True,False
166244,MINDEN,1964-03-05 00:00:00,2020-07-21 00:00:00,32.6052,-93.2947,True,False
166314,MONROE DELTA CC,1977-07-05 00:00:00,2009-10-27 00:00:00,32.4935,-92.0319,True,False
166394,MORGAN CITY,1947-10-01 00:00:00,2010-06-18 00:00:00,29.6833,-91.1761,True,False
166582,NATCHITOCHES,1968-07-01 00:00:00,2008-05-30 00:00:00,31.7722,-93.0955,True,False
166584,NATCHITOCHES #2,2008-11-26 00:00:00,2020-06-30 00:00:00,31.8142,-93.0856,False,False
012930,NEW ORLEANS AUDUBON,1963-01-01 00:00:00,2017-08-13 00:00:00,29.9166,-90.1302,False,False
167738,RED RIVER RESEARCH  STATION,1975-11-01 00:00:00,2020-07-01 00:00:00,32.4219,-93.6380,True,False
168163,ST JOSEPH 3 N,2003-04-01 00:00:00,2013-08-10 00:00:00,31.9497,-91.2336,True,False
013957,SHREVEPORT REGIONAL AP,1947-10-01 00:00:00,2013-12-31 00:00:00,32.4472,-93.8244,False,False
168444,SHREVEPORT SOUTHERN HILLS,2005-12-13 00:00:00,2020-07-05 00:00:00,32.3919,-93.7802,False,False
168539,SLIDELL WSFO,1974-04-08 00:00:00,2017-10-02 00:00:00,30.2500,-89.7667,True,False
168785,STERLINGTON,2005-12-20 00:00:00,2009-12-11 00:00:00,32.7025,-92.0813,True,False
169357,VIDALIA NO 2,1952-11-01 00:00:00,2012-10-12 00:00:00,31.5652,-91.4332,True,False
169803,WINNFIELD 3 N,1956-11-14 00:00:00,2020-07-22 00:00:00,31.9622,-92.6561,True,False
169806,WINNSBORO 5 SSE,1956-08-22 00:00:00,2019-12-17 00:00:00,32.0997,-91.7022,True,False
170100,ACADIA NATIONAL PARK,1982-09-07 00:00:00,2012-07-04 00:00:00,44.3738,-68.2591,True,False
170200,ALLAGASH,1975-08-21 00:00:00,2012-05-07 00:00:00,47.0886,-69.0250,True,False
170273,AUGUSTA,1952-10-01 00:00:00,2018-10-25 00:00:00,44.3007,-69.7792,True,False
171472,CLAYTON LAKE,1948-05-01 00:00:00,2011-06-01 00:00:00,46.6109,-69.5231,True,False
172878,FORT KENT,1953-10-16 00:00:00,2020-08-03 00:00:00,47.2386,-68.6120,True,False
173250,GRAND LAKE MATAGAMON,1975-09-11 00:00:00,2020-08-02 00:00:00,46.1412,-68.7906,True,False
173261,GRAND LAKE STREAM,1948-05-01 00:00:00,2020-08-01 00:00:00,45.1776,-67.7742,True,False
173944,HOULTON 5N,1985-07-01 00:00:00,2015-05-01 00:00:00,46.2061,-67.8418,True,False
174086,JACKMAN,1975-09-23 00:00:00,2019-06-19 00:00:00,45.6260,-70.2460,True,False
175285,MILBRIDGE,2010-05-24 00:00:00,2020-08-06 00:00:00,44.5389,-67.8801,False,False
175347,MILO,1975-09-10 00:00:00,2012-05-04 00:00:00,45.2563,-69.0101,True,False
176435,ORONO 2,1954-08-01 00:00:00,2020-08-01 00:00:00,44.8785,-68.6688,True,False
177255,ROCKLAND,1948-12-01 00:00:00,2018-05-26 00:00:00,44.1030,-69.1157,True,False
177827,SKOWHEGAN,1948-05-01 00:00:00,2018-10-25 00:00:00,44.7638,-69.7194,True,False
013701,ABERDEEN PHILLIPS FLD,1948-05-01 00:00:00,2020-06-29 00:00:00,39.4716,-76.1697,False,False
180700,BELTSVILLE,1948-05-01 00:00:00,2020-07-01 00:00:00,39.0302,-76.9315,True,False
185934,MILLERS 4 NE,1988-03-10 00:00:00,2020-07-01 00:00:00,39.7194,-76.8027,True,False
188065,SAVAGE RIVER DAM,1949-06-01 00:00:00,2017-07-01 00:00:00,39.5099,-79.1401,False,False
200089,ALBERTA FORD FOR CENTER,1991-11-01 00:00:00,2020-07-11 00:00:00,46.6448,-88.4812,False,False
200230,ANN ARBOR U OF MICH,1948-07-01 00:00:00,2020-08-01 00:00:00,42.2981,-83.6639,True,False
200662,BELLAIRE,1948-07-01 00:00:00,2020-07-01 00:00:00,44.9758,-85.1980,True,False
200766,BIG BAY 8 NW,1961-04-27 00:00:00,2020-07-01 00:00:00,46.8864,-87.8639,True,False
201088,BRUCE CROSSING,1978-08-14 00:00:00,2020-07-21 00:00:00,46.5345,-89.1839,False,False
201361,CASS CITY 1 SSW,1992-11-03 00:00:00,2020-08-04 00:00:00,43.5861,-83.1805,True,False
201486,CHATHAM EXPERIMENT FARM 2,1988-08-02 00:00:00,2020-07-01 00:00:00,46.3414,-86.9242,True,False
201680,COLDWTR WASTEWTR PLT,1940-07-01 00:00:00,2020-07-01 00:00:00,41.9397,-85.0183,False,False
201780,COPPER HARBOR FORT WILKINS,1948-07-01 00:00:00,2020-07-17 00:00:00,47.4679,-87.8671,False,False
202094,DETOUR VILLAGE,1952-08-19 00:00:00,2020-07-10 00:00:00,45.9983,-83.9013,True,False
014824,ESCANABA,1948-08-01 00:00:00,2015-06-22 00:00:00,45.7438,-87.0406,False,False
014828,GLADWIN,1948-07-01 00:00:00,2020-07-01 00:00:00,43.9758,-84.4908,False,False
203188,GLENNIE 2SE,2000-01-01 00:00:00,2020-07-06 00:00:00,44.5358,-83.7022,False,False
203295,GRAND HAVEN WASTEWATER PLANT,1948-07-01 00:00:00,2020-07-06 00:00:00,43.0608,-86.2047,True,False
203391,GRAYLING,1989-08-01 00:00:00,2020-07-13 00:00:00,44.6546,-84.6998,True,False
203516,GWINN 1W,1949-07-01 00:00:00,2020-07-24 00:00:00,46.2863,-87.4511,True,False
203585,HARBOR BEACH 1 SSE,2001-06-01 00:00:00,2020-08-04 00:00:00,43.8322,-82.6427,True,False
203947,HOWELL SEWAGE PLANT,1961-04-10 00:00:00,2020-08-03 00:00:00,42.6333,-83.9167,True,False
204090,IRON MTN-KINGSFORD WWTP,1948-07-01 00:00:00,2020-07-01 00:00:00,45.7858,-88.0841,True,False
204104,IRONWOOD,2007-12-03 00:00:00,2020-07-08 00:00:00,46.4656,-90.1892,True,True
204155,JACKSON 3N,1948-07-01 00:00:00,2020-07-01 00:00:00,42.2884,-84.4236,True,False
204320,KENT CITY 2 SW,1988-04-14 00:00:00,2020-06-01 00:00:00,43.1994,-85.7717,True,False
204328,KENTON,1950-07-01 00:00:00,2020-07-16 00:00:00,46.4863,-88.8916,True,False
204502,LAKE CITY EXP FARM,2006-09-01 00:00:00,2020-07-08 00:00:00,44.3088,-85.2050,True,False
205073,MANISTIQUE WWTP,1992-10-01 00:00:00,2020-07-20 00:00:00,45.9512,-86.2513,True,False
094850,MARQUETTE WFO,1979-02-01 00:00:00,2020-07-24 00:00:00,46.5313,-87.5491,False,False
205567,MONTAGUE 4 NW,1978-06-14 00:00:00,2020-07-16 00:00:00,43.4614,-86.4175,True,False
205816,NEWBERRY CORRECTIONAL FACILITY,1951-06-01 00:00:00,2020-07-21 00:00:00,46.3287,-85.5033,True,False
206215,ONTONAGON,1948-09-01 00:00:00,2020-07-25 00:00:00,46.8559,-89.3124,True,False
206300,OWOSSO WWTP,1955-08-31 00:00:00,2020-08-03 00:00:00,43.0161,-84.1800,True,False
207407,SCOTTVILLE 2SE,2009-08-01 00:00:00,2020-07-01 00:00:00,43.9331,-86.2453,False,False
207812,STAMBAUGH 2SSE,1992-10-01 00:00:00,2020-07-01 00:00:00,46.0555,-88.6275,True,False
207828,STANTON,1956-06-18 00:00:00,2020-07-01 00:00:00,43.2908,-85.0922,False,False
208246,TRAVERSE CITY,1958-04-11 00:00:00,2020-07-06 00:00:00,44.7686,-85.5763,True,False
208293,TROUT LAKE 1SW,1948-07-01 00:00:00,2014-06-01 00:00:00,46.1796,-85.0311,True,False
208417,VANDERBILT 11ENE,1948-07-01 00:00:00,2020-07-07 00:00:00,45.1702,-84.4397,True,False
208443,VASSAR,1977-07-01 00:00:00,2020-08-03 00:00:00,43.3656,-83.5828,False,False
209218,YPSILANTI  E  MICH  U,1948-01-01 00:00:00,2020-08-06 00:00:00,42.2469,-83.6256,True,False
210075,ALBERT LEA 3SE,1948-09-01 00:00:00,2020-07-07 00:00:00,43.6064,-93.3019,True,False
210116,ALEXANDRIA WATER TREATMENT PLANT,1971-10-01 00:00:00,2020-05-28 00:00:00,45.8966,-95.3657,False,False
210157,AMBOY,1948-08-01 00:00:00,2019-01-08 00:00:00,43.8835,-94.1665,False,False
210746,BIG FALLS,1948-08-01 00:00:00,2020-02-05 00:00:00,48.1969,-93.7994,True,False
211107,BUFFALO 2NE,1948-08-01 00:00:00,2013-05-14 00:00:00,45.1969,-93.8399,True,False
211227,CAMBRIDGE,1948-08-01 00:00:00,2020-07-10 00:00:00,45.5565,-93.2348,True,False
211250,CAMP NORRIS DNR,2001-09-01 00:00:00,2020-01-23 00:00:00,48.6100,-95.1816,False,False
211263,CANBY,1948-08-01 00:00:00,2020-07-01 00:00:00,44.7184,-96.2696,True,False
212166,DODGE CENTER,1948-08-26 00:00:00,2020-08-06 00:00:00,44.0317,-92.8691,True,False
212645,EVELETH WASTE WATER PLANT,1988-08-23 00:00:00,2020-02-03 00:00:00,47.4581,-92.5303,True,False
212842,FLOODWOOD 3 NE,1986-10-01 00:00:00,2020-02-01 00:00:00,46.9728,-92.8700,True,False
212916,FOSSTON 1 E,1948-08-01 00:00:00,2020-07-02 00:00:00,47.5639,-95.7246,True,False
212964,FRAZEE,1948-08-01 00:00:00,2020-06-29 00:00:00,46.7336,-95.7066,False,False
213202,GOLDEN VALLEY,1963-04-21 00:00:00,2020-07-01 00:00:00,44.9907,-93.3989,True,False
213296,GRAND PORTAGE,1950-07-01 00:00:00,2019-11-14 00:00:00,47.9711,-89.6908,False,False
213311,GRANITE FALLS,1948-08-01 00:00:00,2020-07-01 00:00:00,44.8135,-95.5517,True,False
213411,GULL LAKE DAM,1948-08-01 00:00:00,2019-10-05 00:00:00,46.4119,-94.3608,True,False
213417,GUNFLINT LAKE 10 NW,1951-08-26 00:00:00,2020-02-01 00:00:00,48.1603,-90.8842,False,False
213463,HALSTAD,1978-10-11 00:00:00,2020-05-07 00:00:00,47.3522,-96.8332,True,False
213863,HOLYOKE,1948-09-23 00:00:00,2020-02-04 00:00:00,46.4675,-92.3903,True,False
214418,LA CRESCENT DAM 7,1969-11-01 00:00:00,2020-08-12 00:00:00,43.8657,-91.3100,True,False
214453,LAKEFIELD 2NE,1948-08-01 00:00:00,2020-08-04 00:00:00,43.7022,-95.1519,True,False
214652,LEECH LAKE,1953-03-01 00:00:00,2020-02-04 00:00:00,47.2467,-94.2228,True,False
214721,LE SUEUR,1948-08-01 00:00:00,2020-07-02 00:00:00,44.4698,-93.9025,True,False
214793,LITTLE FALLS 2NNE,1972-10-19 00:00:00,2020-07-01 00:00:00,46.0039,-94.3450,True,False
214937,LUVERNE,1950-10-01 00:00:00,2020-08-03 00:00:00,43.6658,-96.2022,True,False
215987,NORTHFIELD 2NNE,1948-08-01 00:00:00,2020-07-02 00:00:00,44.4753,-93.1486,True,False
216166,ONAMIA RANGER STATION,1948-08-01 00:00:00,2020-07-01 00:00:00,46.0677,-93.6666,True,False
216211,ORR 3E,2007-12-01 00:00:00,2020-02-01 00:00:00,48.0508,-92.7636,False,False
216228,ORWELL DAM,1953-03-01 00:00:00,2020-07-13 00:00:00,46.2154,-96.1780,True,False
216612,POKEGAMA DAM,1948-08-01 00:00:00,2020-02-03 00:00:00,47.2508,-93.5861,True,False
216795,REDBY,1948-08-01 00:00:00,2020-07-07 00:00:00,47.8833,-94.9167,True,False
216822,RED WING DAM 3,1948-08-01 00:00:00,2020-07-01 00:00:00,44.6103,-92.6101,True,False
217184,RUSHFORD,1948-08-01 00:00:00,2020-08-03 00:00:00,43.8052,-91.7501,True,False
217460,SANDY LAKE DAM LIBBY,1948-08-01 00:00:00,2019-11-13 00:00:00,46.7953,-93.3211,True,False
217602,SHERBURN 2 E,1948-08-01 00:00:00,2020-07-01 00:00:00,43.6500,-94.7000,True,False
217907,SPRINGFIELD 1 NW,1948-08-01 00:00:00,2014-10-01 00:00:00,44.2470,-94.9865,True,False
217917,SPRING GROVE 4N,2002-03-01 00:00:00,2020-08-01 00:00:00,43.6126,-91.6223,False,False
217941,SPRING VALLEY,1948-08-01 00:00:00,2020-08-03 00:00:00,43.6933,-92.3926,True,False
218235,THIEF LAKE REFUGE,1948-08-01 00:00:00,2020-07-08 00:00:00,48.4882,-95.9496,True,False
218280,TOFTE RANGER STATION,1948-08-01 00:00:00,2020-02-07 00:00:00,47.5681,-90.8500,True,False
218323,TRACY,1948-08-01 00:00:00,2020-08-04 00:00:00,44.2394,-95.6308,True,False
218411,TWIN VALLEY 3 SW,1948-12-01 00:00:00,2016-04-14 00:00:00,47.2272,-96.2986,True,False
218613,WALES 2E,1948-08-01 00:00:00,2019-11-03 00:00:00,47.2561,-91.7017,True,False
218621,WALKER RANGER STATION,1948-08-01 00:00:00,2020-02-03 00:00:00,47.0998,-94.5724,True,False
218679,WARROAD,1948-08-01 00:00:00,2014-04-29 00:00:00,48.8947,-95.3303,True,False
218729,WATSON 1NE,1954-05-09 00:00:00,2020-05-29 00:00:00,45.0227,-95.7896,True,False
218947,WHITE ROCK DAM,1948-08-01 00:00:00,2020-07-13 00:00:00,45.8621,-96.5652,True,False
219059,WINNIBIGOSHISH DAM,1953-03-01 00:00:00,2020-08-03 00:00:00,47.4306,-94.0586,True,False
219170,WORTHINGTON 2 NNE,1971-07-28 00:00:00,2020-08-03 00:00:00,43.6449,-95.5802,True,False
220021,ABERDEEN,1951-08-29 00:00:00,2020-04-07 00:00:00,33.8300,-88.5213,True,False
220237,ARKABUTLA DAM,1947-10-04 00:00:00,2020-07-13 00:00:00,34.7803,-90.1153,True,False
220797,BILOXI 9 WNW,1970-04-15 00:00:00,2013-09-01 00:00:00,30.4375,-89.0277,True,False
220955,BOONEVILLE,1961-02-23 00:00:00,2019-03-24 00:00:00,34.6345,-88.5622,True,False
221094,BROOKHAVEN CITY,1978-09-01 00:00:00,2014-05-05 00:00:00,31.5447,-90.4580,True,False
221314,CALHOUN CITY,1947-10-04 00:00:00,2020-07-04 00:00:00,33.8591,-89.3135,True,False
221389,CANTON 4N,1947-10-08 00:00:00,2020-04-07 00:00:00,32.6713,-90.0361,True,False
221707,CLARKSDALE,1951-06-16 00:00:00,2020-06-08 00:00:00,34.1864,-90.5573,True,False
221852,COLLINS,1948-06-01 00:00:00,2015-10-01 00:00:00,31.6419,-89.5572,True,False
221865,COLUMBIA,2005-04-01 00:00:00,2020-04-03 00:00:00,31.2502,-89.8361,True,False
221900,CONEHATTA 1 NE,1980-06-01 00:00:00,2019-12-04 00:00:00,32.4565,-89.2691,True,False
221962,CORINTH 7 SW,1949-06-05 00:00:00,2020-06-09 00:00:00,34.8791,-88.6177,True,False
222773,ENID DAM,1948-06-01 00:00:00,2020-07-01 00:00:00,34.1606,-89.9020,True,False
222870,ETHEL,1980-06-01 00:00:00,2018-01-09 00:00:00,33.1169,-89.4719,True,False
222896,EUPORA 2 E,1951-04-05 00:00:00,2016-01-30 00:00:00,33.5627,-89.2358,True,False
223619,GREENWOOD 2,1952-05-01 00:00:00,2016-09-06 00:00:00,33.5222,-90.1758,True,False
223650,GRENADA DAM,1954-02-17 00:00:00,2012-04-09 00:00:00,33.8055,-89.7713,True,False
223920,HAZLEHURST 5 SW,2003-01-16 00:00:00,2015-07-28 00:00:00,31.8327,-90.4541,True,False
224001,HICKORY FLAT,1948-06-01 00:00:00,2016-06-01 00:00:00,34.6189,-89.1912,True,False
224173,HOLLY SPRINGS 4 N,1947-10-04 00:00:00,2019-07-02 00:00:00,34.8219,-89.4347,True,False
224265,HOUSTON,1948-06-01 00:00:00,2020-07-09 00:00:00,33.8848,-88.9866,True,False
224778,KOSCIUSKO 13 SE,1980-06-01 00:00:00,2020-02-04 00:00:00,32.9841,-89.3897,True,False
224966,LEAKESVILLE,1957-02-25 00:00:00,2020-08-01 00:00:00,31.1494,-88.5550,True,False
225361,MACON 3N,1973-03-01 00:00:00,2017-09-30 00:00:00,33.1544,-88.5586,True,False
226084,MOUNT PLEASANT 4SW,1950-05-01 00:00:00,2020-06-07 00:00:00,34.8894,-89.6041,True,False
226177,NATCHEZ,1948-06-01 00:00:00,2020-04-02 00:00:00,31.5890,-91.3409,True,False
226400,NOXAPATER 1N,1980-06-01 00:00:00,2020-02-04 00:00:00,33.0044,-89.0630,True,False
226718,PASCAGOULA 3 NE,1973-04-12 00:00:00,2016-05-02 00:00:00,30.3961,-88.4780,True,False
226816,PELAHATCHIE 3 E,1980-06-01 00:00:00,2020-02-04 00:00:00,32.3211,-89.7469,True,False
227132,PORT GIBSON 1 NE,1969-10-01 00:00:00,2015-07-28 00:00:00,31.9850,-90.9719,True,False
227220,PURVIS 2N,1948-06-01 00:00:00,2020-03-01 00:00:00,31.1775,-89.4155,True,False
227276,RALEIGH 6N,1964-06-03 00:00:00,2020-04-02 00:00:00,32.1432,-89.5524,True,False
227467,RIPLEY,1948-06-01 00:00:00,2019-07-02 00:00:00,34.7398,-88.9515,True,False
227560,ROLLING FORK,1952-03-27 00:00:00,2013-04-10 00:00:00,32.8977,-90.8852,True,False
227815,SARDIS DAM,1947-10-04 00:00:00,2020-07-07 00:00:00,34.3961,-89.7902,True,False
227820,SAREPTA 1 NNE,1947-10-07 00:00:00,2019-04-25 00:00:00,34.1207,-89.2943,True,False
227840,SAUCIER EXP FOREST,1954-05-01 00:00:00,2017-12-01 00:00:00,30.6263,-89.0549,True,False
228053,SHUBUTA,1984-02-01 00:00:00,2014-06-22 00:00:00,31.8597,-88.6953,True,False
228374,STATE UNIVERSITY,1948-06-01 00:00:00,2020-04-01 00:00:00,33.4691,-88.7822,True,False
228445,STONEVILLE EXP STA,1948-06-01 00:00:00,2015-07-29 00:00:00,33.4311,-90.9108,True,False
229048,TYLERTOWN  5ESE,1948-06-01 00:00:00,2012-09-30 00:00:00,31.0800,-90.0603,True,False
229079,UNIVERSITY,1948-06-01 00:00:00,2020-07-01 00:00:00,34.3726,-89.5308,True,False
229230,VICKSBURG CITY,2004-09-05 00:00:00,2020-02-03 00:00:00,32.3850,-90.8752,False,False
229617,WHITE SAND,1948-06-01 00:00:00,2013-08-27 00:00:00,30.7975,-89.6891,True,False
229648,WIGGINS RANGER STA,1973-10-19 00:00:00,2020-08-04 00:00:00,30.8499,-89.1572,True,False
229860,YAZOO CITY 5 NNE,1960-01-01 00:00:00,2013-06-14 00:00:00,32.9027,-90.3816,True,False
093825,ADVANCE 1 S,1948-08-01 00:00:00,2020-06-01 00:00:00,37.0955,-89.9161,False,False
230088,ALLEY SPRING RGR STA,1973-06-01 00:00:00,2011-06-08 00:00:00,37.1527,-91.4438,True,False
230204,APPLETON CITY,1948-08-01 00:00:00,2020-08-04 00:00:00,38.1872,-94.0283,True,False
230789,BOLIVAR 1 NE,1948-08-01 00:00:00,2020-08-03 00:00:00,37.6164,-93.3914,True,False
231283,CAP AU GRIS LOCK & DAM 25,1948-08-01 00:00:00,2020-08-04 00:00:00,39.0028,-90.6892,False,False
231383,CASSVILLE,1948-08-01 00:00:00,2020-08-03 00:00:00,36.6874,-93.8695,False,False
231600,CLARENCE CANNON DAM,1993-08-02 00:00:00,2020-08-03 00:00:00,39.5332,-91.6451,True,False
231640,CLARKSVILLE L&D 24,1948-08-01 00:00:00,2020-08-04 00:00:00,39.3736,-90.9060,True,False
231674,CLEARWATER DAM,1948-08-01 00:00:00,2020-06-01 00:00:00,37.1319,-90.7755,True,False
231711,CLINTON,1948-08-01 00:00:00,2020-07-13 00:00:00,38.3950,-93.7711,True,False
232302,DORA 3SE,1948-08-01 00:00:00,2020-08-12 00:00:00,36.7396,-92.2086,True,False
232318,DOWNING,1948-08-01 00:00:00,2020-07-01 00:00:00,40.4906,-92.3705,False,False
232568,ELM,1956-08-01 00:00:00,2020-07-07 00:00:00,38.8680,-94.0352,True,False
232809,FARMINGTON,1948-08-01 00:00:00,2020-08-03 00:00:00,37.8000,-90.4167,True,False
233079,FULTON,1948-08-01 00:00:00,2020-08-12 00:00:00,38.8484,-91.9420,True,False
233219,GLADSTONE,1970-07-01 00:00:00,2020-07-01 00:00:00,39.1753,-94.5937,True,False
233375,GRANT CITY 5WSW,2009-05-01 00:00:00,2020-07-01 00:00:00,40.4640,-94.4978,False,False
233601,HANNIBAL WATER WORKS,1950-04-01 00:00:00,2020-08-03 00:00:00,39.7232,-91.3748,True,False
233999,HORNERSVILLE,1948-08-01 00:00:00,2020-07-01 00:00:00,36.0452,-90.1492,False,False
234271,JEFFERSON CITY WTR PL,1948-12-01 00:00:00,2020-08-03 00:00:00,38.5854,-92.1825,True,False
234273,JEFFERSON BARRACKS,1959-04-16 00:00:00,2017-04-07 00:00:00,38.5038,-90.2800,False,False
234544,KIRKSVILLE,1971-07-01 00:00:00,2020-07-01 00:00:00,40.2057,-92.5748,True,False
234825,LEBANON 2W,1948-08-01 00:00:00,2020-08-05 00:00:00,37.6850,-92.6939,True,False
234919,LICKING 4N,1979-05-15 00:00:00,2020-08-12 00:00:00,37.5544,-91.8830,True,False
235027,LOCKWOOD,1948-08-01 00:00:00,2020-08-01 00:00:00,37.3909,-93.9491,True,False
235050,LONG BRANCH RESERVOIR,1986-05-01 00:00:00,2020-07-01 00:00:00,39.7505,-92.5065,True,False
235130,LURAY 2 N,1961-01-13 00:00:00,2020-08-04 00:00:00,40.4869,-91.8764,True,False
235207,MALDEN MUNICIPAL AP,1954-02-01 00:00:00,2020-07-02 00:00:00,36.5994,-89.9894,True,False
013991,MARSHALL,1948-08-01 00:00:00,2020-06-30 00:00:00,39.1341,-93.2225,False,False
235594,MILLER,1951-01-01 00:00:00,2020-08-01 00:00:00,37.2091,-93.8356,True,False
235671,MOBERLY AIRPORT,1948-12-01 00:00:00,2020-07-02 00:00:00,39.4667,-92.4167,True,False
235834,MOUNTAIN GROVE 2 N,1948-08-01 00:00:00,2020-08-04 00:00:00,37.1542,-92.2618,True,False
235987,NEVADA WATER PLANT,1948-08-01 00:00:00,2020-08-03 00:00:00,37.8395,-94.3740,True,False
236012,NEW FRANKLIN 1W,1957-08-01 00:00:00,2020-07-17 00:00:00,39.0172,-92.7558,True,False
236357,OREGON,1979-07-01 00:00:00,2020-07-06 00:00:00,39.9807,-95.1465,True,False
236402,OSCEOLA,1982-08-01 00:00:00,2020-08-05 00:00:00,38.0492,-93.7039,True,False
236460,OZARK BEACH,1968-11-01 00:00:00,2020-08-01 00:00:00,36.6745,-93.1076,True,False
236563,PATTONSBURG 2S,1948-08-01 00:00:00,2020-07-02 00:00:00,40.0147,-94.1294,True,False
236777,POMME DE TERRE DAM,1963-11-01 00:00:00,2020-08-04 00:00:00,37.9050,-93.3168,True,False
236826,POTOSI 4 SW,1948-08-01 00:00:00,2020-08-03 00:00:00,37.8957,-90.8413,True,False
237116,RICHMOND 3S,2000-06-01 00:00:00,2020-07-01 00:00:00,39.2422,-93.9700,False,False
237130,RIDGEWAY,1948-08-01 00:00:00,2020-07-28 00:00:00,40.3808,-93.9308,False,False
237263,ROLLA MISSOURI S&T,1948-08-01 00:00:00,2020-08-01 00:00:00,37.9567,-91.7762,True,False
237452,ST LOUIS SCIENCE CENTER,1968-07-01 00:00:00,2020-08-03 00:00:00,38.6308,-90.2708,True,False
237506,SALEM,1948-08-01 00:00:00,2020-08-03 00:00:00,37.6339,-91.5361,True,False
237656,SENECA,1948-08-01 00:00:00,2020-08-03 00:00:00,36.8369,-94.6211,False,False
237862,SMITHVILLE LAKE,1981-10-01 00:00:00,2020-07-02 00:00:00,39.3902,-94.5497,True,False
238003,STANBERRY,1948-08-01 00:00:00,2012-11-09 00:00:00,40.2199,-94.5444,False,False
238051,STEFFENVILLE,1948-08-01 00:00:00,2020-08-01 00:00:00,39.9702,-91.8875,True,False
238082,STOCKTON DAM,1970-05-01 00:00:00,2020-08-04 00:00:00,37.6968,-93.7725,True,False
238223,SWEET SPRINGS,1992-07-01 00:00:00,2020-07-07 00:00:00,38.9663,-93.4195,True,False
238252,TABLE ROCK DAM,1956-08-10 00:00:00,2020-08-03 00:00:00,36.5938,-93.3118,False,False
238292,TARKIO #2,2008-11-01 00:00:00,2020-07-01 00:00:00,40.4373,-95.3866,False,False
238466,TRUMAN DAM & RESERVOIR,1980-12-01 00:00:00,2020-08-01 00:00:00,38.2597,-93.4136,True,False
238524,UNITY VILLAGE,1966-03-03 00:00:00,2020-07-01 00:00:00,38.9482,-94.3970,True,False
238603,VERSAILLES,2000-01-01 00:00:00,2020-08-05 00:00:00,38.4326,-92.8398,True,False
238609,VIBURNUM,1971-04-01 00:00:00,2020-08-06 00:00:00,37.7109,-91.1336,False,False
238620,VIENNA 2 WNW,1948-11-01 00:00:00,2012-05-02 00:00:00,38.2016,-91.9811,True,False
238700,WAPPAPELLO DAM,1948-08-01 00:00:00,2020-06-01 00:00:00,36.9230,-90.2836,True,False
238712,WARRENSBURG 4NW,1953-03-24 00:00:00,2020-07-23 00:00:00,38.7841,-93.8008,True,False
238746,WASHINGTON,1948-08-01 00:00:00,2020-08-04 00:00:00,38.5416,-90.9750,False,False
238880,WEST PLAINS,1948-08-01 00:00:00,2020-08-02 00:00:00,36.7267,-91.8736,True,False
240019,ABSAROKEE,1971-01-31 00:00:00,2020-06-19 00:00:00,45.5443,-109.3935,True,False
240165,ALZADA,1948-07-01 00:00:00,2020-07-01 00:00:00,45.0155,-104.4108,True,False
240330,ASHLAND RANGER STATION,1948-07-01 00:00:00,2020-07-14 00:00:00,45.5938,-106.2722,True,False
240554,BAYLOR,1948-07-01 00:00:00,2020-07-08 00:00:00,48.6715,-106.4808,True,False
241008,BOULDER,1948-09-01 00:00:00,2020-06-24 00:00:00,46.2310,-112.1138,True,False
241088,BREDETTE,1940-01-01 00:00:00,2020-07-01 00:00:00,48.5155,-105.2991,True,False
241102,BRIDGER 2 N,1948-07-01 00:00:00,2020-07-09 00:00:00,45.3261,-108.9091,True,False
241127,BROADUS,1942-01-01 00:00:00,2020-07-09 00:00:00,45.4441,-105.4072,True,False
241202,BROWNING,1949-06-01 00:00:00,2020-07-09 00:00:00,48.5615,-113.0133,True,False
241309,BUTTE 8 S,1953-09-01 00:00:00,2020-07-02 00:00:00,45.8966,-112.5471,True,False
241500,CARDWELL,1978-04-19 00:00:00,2020-06-28 00:00:00,45.8604,-111.9582,True,False
241737,CHOTEAU,1940-01-01 00:00:00,2020-07-01 00:00:00,47.8205,-112.1921,True,False
241875,COHAGEN,1948-07-01 00:00:00,2020-07-01 00:00:00,47.0564,-106.6164,True,False
241984,CONTENT 4 NNE,1948-07-01 00:00:00,2020-07-01 00:00:00,48.0500,-107.5500,True,False
241995,COOKE CITY 2 W,1967-10-25 00:00:00,2014-06-27 00:00:00,45.0108,-109.9820,True,False
024137,CUT BANK AIRPORT,1948-07-01 00:00:00,2020-07-09 00:00:00,48.6033,-112.3752,False,False
242414,DILLON  9 SSE,1949-08-01 00:00:00,2020-07-01 00:00:00,45.0918,-112.6044,True,False
242421,DIVIDE,1948-11-01 00:00:00,2020-06-24 00:00:00,45.7510,-112.7547,True,False
242441,DODSON 11 N,1952-08-06 00:00:00,2020-07-01 00:00:00,48.5542,-108.2067,True,False
024139,DRUMMOND AVIATION,1963-05-31 00:00:00,2012-10-31 00:00:00,46.6383,-113.1761,False,False
242584,DUTTON 6 E,1948-07-01 00:00:00,2020-07-06 00:00:00,47.8433,-111.5795,True,False
242689,EKALAKA,1948-09-01 00:00:00,2020-07-02 00:00:00,45.8863,-104.5478,True,False
242827,EUREKA RANGER STATION,1960-06-01 00:00:00,2020-07-01 00:00:00,48.8978,-115.0644,True,False
243176,FORT PECK POWER PLANT,1956-12-01 00:00:00,2020-07-09 00:00:00,48.0121,-106.4117,True,False
243479,GIBBONS PASS,1948-07-01 00:00:00,2020-02-09 00:00:00,45.6928,-113.9550,True,False
243581,GLENDIVE,1948-09-01 00:00:00,2020-07-01 00:00:00,47.1059,-104.7176,True,False
243753,GREAT FALLS WFO,2000-09-01 00:00:00,2020-07-07 00:00:00,47.4615,-111.3850,True,False
243984,HAUGAN,1952-10-22 00:00:00,2020-06-02 00:00:00,47.3833,-115.4000,True,False
244143,HILGER,1948-07-01 00:00:00,2020-07-02 00:00:00,47.2531,-109.3610,True,False
244241,HOLTER DAM,1948-07-01 00:00:00,2020-07-01 00:00:00,46.9907,-112.0116,True,False
244442,ISMAY,1948-07-01 00:00:00,2020-07-01 00:00:00,46.5400,-104.7522,True,False
244512,JOPLIN,1948-07-01 00:00:00,2020-07-02 00:00:00,48.5595,-110.7719,True,False
244820,LAKEVIEW,1948-07-01 00:00:00,2020-06-04 00:00:00,44.5994,-111.8125,True,False
244904,LAVINA,1948-07-01 00:00:00,2020-07-01 00:00:00,46.2930,-108.9416,True,False
244983,LEWISTOWN 2 SW,1953-10-01 00:00:00,2020-07-20 00:00:00,47.0512,-109.4426,True,False
245015,LIBBY 1 NE RS,1948-08-01 00:00:00,2019-10-07 00:00:00,48.4036,-115.5392,True,False
245030,LIMA,1948-08-01 00:00:00,2020-07-20 00:00:00,44.6331,-112.5928,True,False
245088,LIVINGSTON RAIN GAUGE,2009-09-01 00:00:00,2020-07-01 00:00:00,45.6970,-110.4540,False,False
245106,LODGE GRASS,1949-01-01 00:00:00,2020-07-01 00:00:00,45.3790,-107.3787,True,False
245122,LOGAN 2 W,1971-01-01 00:00:00,2020-07-01 00:00:00,45.8908,-111.4588,True,False
245335,MALTA #2,1999-01-09 00:00:00,2020-07-07 00:00:00,48.3469,-107.8769,False,False
245387,MARTINSDALE 3 NNW,1941-01-01 00:00:00,2012-05-03 00:00:00,46.5000,-110.3378,True,False
245706,MILLEGAN,1948-07-01 00:00:00,2020-07-02 00:00:00,47.0206,-111.3699,True,False
245791,MOLT 6 SW,1948-07-01 00:00:00,2020-05-01 00:00:00,45.7846,-108.9663,True,False
246472,PHILLIPSBURG RANGER STATION,1978-09-13 00:00:00,2020-03-02 00:00:00,46.3158,-113.3000,True,False
246562,PLAINS RANGER STATION,1948-09-01 00:00:00,2020-07-21 00:00:00,47.4661,-114.8794,True,False
246589,PLENTYWOOD 1NE,1998-02-20 00:00:00,2020-07-01 00:00:00,48.7910,-104.5298,True,False
246610,POLARIS 4 N,1998-05-01 00:00:00,2020-07-02 00:00:00,45.4144,-113.1061,True,False
246946,REEDPOINT,1948-07-01 00:00:00,2020-07-02 00:00:00,45.7061,-109.5399,True,False
247258,RUSSELL,1948-07-01 00:00:00,2020-07-06 00:00:00,48.0685,-111.0661,True,False
247292,ST. MARY,1981-05-01 00:00:00,2020-07-09 00:00:00,48.7386,-113.4295,True,False
247425,SCOBEY 4 NW,1979-05-01 00:00:00,2020-07-06 00:00:00,48.8355,-105.4748,True,False
247500,SHELBY,1948-07-01 00:00:00,2020-07-01 00:00:00,48.5133,-111.8551,False,False
247610,SILVERSTAR,1948-07-01 00:00:00,2020-07-02 00:00:00,45.6917,-112.2834,True,False
247894,STEVENSVILLE,1978-09-14 00:00:00,2020-07-10 00:00:00,46.5137,-114.0910,True,False
248087,SWAN LAKE,1948-07-01 00:00:00,2010-09-01 00:00:00,47.9161,-113.8390,True,False
248169,TERRY 25 NNW,1940-01-01 00:00:00,2019-10-08 00:00:00,47.1167,-105.5500,True,False
248329,TOWNSEND 12 ENE,1948-07-01 00:00:00,2020-07-16 00:00:00,46.3566,-111.2841,True,False
248511,VANANDA 6 NE,1948-07-01 00:00:00,2020-06-15 00:00:00,46.4300,-106.9200,True,False
248777,WESTBY,1948-07-01 00:00:00,2020-06-26 00:00:00,48.8745,-104.0504,True,False
248866,WEST YELLOWSTONE USFS,1981-10-01 00:00:00,2020-08-05 00:00:00,44.6658,-111.0983,True,False
249044,WINNETT,1998-01-01 00:00:00,2020-05-06 00:00:00,47.0059,-108.3560,False,False
249052,WINNETT 8 ESE,1948-08-01 00:00:00,2020-07-01 00:00:00,46.9393,-108.1968,True,False
249240,YELLOWTAIL DAM,1948-08-01 00:00:00,2020-07-06 00:00:00,45.3127,-107.9383,True,False
249900,ZORTMAN,1965-09-01 00:00:00,2020-07-06 00:00:00,47.9185,-108.5244,True,False
250075,ALBION 7W,1948-09-01 00:00:00,2020-08-05 00:00:00,41.6833,-98.1302,False,False
250180,AMELIA,1948-08-01 00:00:00,2020-07-14 00:00:00,42.2342,-98.9155,True,False
250245,ANSELMO 2 SE,1948-08-01 00:00:00,2020-07-06 00:00:00,41.5975,-99.8258,True,False
250435,AUBURN 5 NNE,1986-12-02 00:00:00,2020-08-01 00:00:00,40.4500,-95.8000,True,False
250580,BASSETT,1948-08-01 00:00:00,2020-07-03 00:00:00,42.5829,-99.5397,True,False
250622,BEATRICE 1N,1984-11-01 00:00:00,2020-04-01 00:00:00,40.2994,-96.7500,True,False
250760,BENKELMAN 1N,1948-08-01 00:00:00,2020-05-13 00:00:00,40.0646,-101.5437,True,False
250781,BENNINGTON 3WSW,2005-02-04 00:00:00,2020-01-21 00:00:00,41.3536,-96.2094,True,False
250865,BIG SPRINGS,1948-08-01 00:00:00,2020-05-07 00:00:00,41.0654,-102.0710,True,False
251145,BRIDGEPORT,1948-08-01 00:00:00,2020-07-08 00:00:00,41.6680,-103.1038,True,False
251205,BROKEN BOW NO 2,1948-08-01 00:00:00,2020-06-11 00:00:00,41.4027,-99.6322,True,False
251345,BURWELL,1948-08-01 00:00:00,2020-06-01 00:00:00,41.7769,-99.1433,True,False
251450,CANADAY STEAM PLANT,1961-11-01 00:00:00,2020-07-07 00:00:00,40.6944,-99.7008,True,False
251575,CHADRON 3SW,1948-08-01 00:00:00,2020-02-01 00:00:00,42.8083,-103.0533,True,False
251776,COLERIDGE,1950-11-01 00:00:00,2020-08-01 00:00:00,42.5055,-97.2086,True,False
252010,CRESTON,1948-08-01 00:00:00,2015-12-17 00:00:00,41.7063,-97.3637,True,False
252020,CRETE 4ESE,1972-07-01 00:00:00,2020-08-17 00:00:00,40.6092,-96.8720,True,False
252049,CROFTON 8N,2003-05-01 00:00:00,2020-07-07 00:00:00,42.8455,-97.4733,False,False
252100,CURTIS,1948-08-01 00:00:00,2020-07-09 00:00:00,40.6344,-100.5219,True,False
252205,DAVID CITY,1948-08-01 00:00:00,2019-11-19 00:00:00,41.2491,-97.1327,True,False
252225,DAWSON 3ENE,1948-08-01 00:00:00,2015-11-02 00:00:00,40.1377,-95.7786,True,False
252433,DU BOIS 1NNW,1970-10-01 00:00:00,2020-08-07 00:00:00,40.0411,-96.0499,True,False
252560,EDISON,1948-08-01 00:00:00,2020-07-01 00:00:00,40.2763,-99.7836,True,False
252655,ELM CREEK 1 SSW,1948-08-01 00:00:00,2020-07-03 00:00:00,40.6997,-99.3800,True,False
253037,FRANKLIN #2,1983-06-01 00:00:00,2020-07-12 00:00:00,40.0952,-98.9450,True,False
253185,GENOA 2 W,1948-08-01 00:00:00,2020-07-22 00:00:00,41.4513,-97.7644,True,False
253205,GIBBON,1948-08-01 00:00:00,2020-07-09 00:00:00,40.7344,-98.8453,True,False
253469,GRETNA 3ESE,1950-11-01 00:00:00,2020-08-03 00:00:00,41.1300,-96.1988,True,False
253595,HARLAN COUNTY LAKE,1948-08-01 00:00:00,2020-07-06 00:00:00,40.0892,-99.2133,True,False
024020,HAYES CENTER 1NW,1948-08-01 00:00:00,2020-07-01 00:00:00,40.5232,-101.0346,False,False
253737,HEBRON #2,1996-10-08 00:00:00,2020-07-02 00:00:00,40.1497,-97.5864,False,False
253804,HERMAN 4WSW,2008-10-14 00:00:00,2020-08-10 00:00:00,41.6666,-96.2597,False,False
254455,KINGSLEY DAM,1948-08-01 00:00:00,2020-07-01 00:00:00,41.2097,-101.6705,True,False
255040,LYNCH,1948-08-01 00:00:00,2020-08-03 00:00:00,42.8299,-98.4710,True,False
255112,MALMO 1 E,1950-11-01 00:00:00,2020-08-01 00:00:00,41.2629,-96.6945,True,False
255312,MC COOK #2,1967-09-13 00:00:00,2020-07-06 00:00:00,40.2161,-100.6301,True,False
255700,MULLEN,2009-11-27 00:00:00,2020-07-01 00:00:00,42.0423,-101.0457,False,False
256386,OSHKOSH 10 NE,1958-11-01 00:00:00,2020-07-01 00:00:00,41.4952,-102.1844,True,False
256630,PENDER,1949-04-01 00:00:00,2020-08-06 00:00:00,42.1152,-96.7058,True,False
256657,PETERSBURG,1988-10-05 00:00:00,2020-08-12 00:00:00,41.8550,-98.0747,False,False
256720,PIERCE,1948-08-01 00:00:00,2020-08-02 00:00:00,42.1957,-97.5206,True,False
257351,ROYAL 2SE,1995-11-01 00:00:00,2020-08-03 00:00:00,42.3202,-98.0933,True,False
257685,SCRIBNER,1948-08-01 00:00:00,2020-07-13 00:00:00,41.6677,-96.6688,True,False
257829,SIDNEY 2S,2009-08-03 00:00:00,2020-07-01 00:00:00,41.1097,-102.9788,False,False
258025,SPALDING 8S,1948-08-01 00:00:00,2020-07-08 00:00:00,41.5673,-98.3943,True,False
258395,SYRACUSE,1948-08-01 00:00:00,2020-08-05 00:00:00,40.6661,-96.1891,True,False
259050,WAYNE 4 NW,1948-08-01 00:00:00,2020-08-14 00:00:00,42.2949,-97.0569,True,False
259513,YORK 3N,2008-09-01 00:00:00,2020-07-01 00:00:00,40.9152,-97.5997,False,False
262557,ELGIN,1951-03-01 00:00:00,2012-12-13 00:00:00,37.3476,-114.5410,True,False
262570,ELKO NWS OFFICE,1999-11-05 00:00:00,2020-07-07 00:00:00,40.8602,-115.7426,True,False
263512,HAWTHORNE,1954-08-20 00:00:00,2020-07-01 00:00:00,38.5155,-118.6208,True,False
264698,LOVELOCK,1952-09-23 00:00:00,2020-07-06 00:00:00,40.1700,-118.4776,True,False
265191,MINDEN,1948-07-01 00:00:00,2020-07-01 00:00:00,38.9547,-119.7758,True,False
265441,MT. ROSE - CHRISTMAS TREE,1971-01-01 00:00:00,2020-07-02 00:00:00,39.3422,-119.8636,True,False
265846,OVERTON,1948-08-01 00:00:00,2015-08-03 00:00:00,36.5508,-114.4580,True,False
265880,PAHRANAGAT WILDLIFE REF,1965-04-29 00:00:00,2014-03-06 00:00:00,37.2689,-115.1217,True,False
267192,RYE PATCH DAM,1948-07-01 00:00:00,2020-07-01 00:00:00,40.4661,-118.3047,True,False
267369,SEARCHLIGHT,1948-07-01 00:00:00,2016-07-05 00:00:00,35.4661,-114.9216,True,False
267612,SMITH 6 N,1973-07-03 00:00:00,2020-02-10 00:00:00,38.8822,-119.3511,True,False
267750,SPRING VALLEY STATE PARK,1977-01-04 00:00:00,2012-12-13 00:00:00,38.0405,-114.1800,True,False
268822,WABUSKA 6 SE,1972-06-01 00:00:00,2020-07-11 00:00:00,39.0747,-119.1189,True,False
268838,WADSWORTH 4N,1974-08-14 00:00:00,2020-07-02 00:00:00,39.6915,-119.2900,True,False
270998,BRISTOL,1948-05-01 00:00:00,2018-10-11 00:00:00,43.5984,-71.7185,True,False
272174,DURHAM,1948-05-01 00:00:00,2020-07-09 00:00:00,43.1432,-70.9501,True,False
272842,ERROL,1948-05-01 00:00:00,2014-07-30 00:00:00,44.7888,-71.1230,True,False
273182,FRANKLIN FALLS DAM,1948-05-01 00:00:00,2020-07-14 00:00:00,43.4703,-71.6537,True,False
273850,HANOVER,1948-06-01 00:00:00,2020-07-06 00:00:00,43.7052,-72.2855,True,False
274218,HOPKINTON LAKE,1963-06-27 00:00:00,2019-07-25 00:00:00,43.1890,-71.7460,True,False
274806,LITTLETON 4,1998-10-21 00:00:00,2020-07-02 00:00:00,44.2814,-71.8073,False,False
275780,NEW DURHAM 3 NNW,1948-05-01 00:00:00,2019-05-15 00:00:00,43.4758,-71.1788,True,False
275868,NEWPORT,1969-11-20 00:00:00,2019-05-01 00:00:00,43.3772,-72.1812,True,False
276234,NORTH STRATFORD,1968-09-18 00:00:00,2019-08-28 00:00:00,44.6820,-71.5858,True,False
276818,PINKHAM NOTCH,1948-05-01 00:00:00,2020-07-07 00:00:00,44.2580,-71.2525,True,False
276856,PITTSBURG RESERVOIR,1948-05-01 00:00:00,2020-07-06 00:00:00,45.0469,-71.3830,True,False
278885,WARREN,1948-05-01 00:00:00,2018-11-01 00:00:00,43.9099,-71.8878,True,False
281351,CAPE MAY 2 NW,1948-05-01 00:00:00,2020-08-01 00:00:00,38.9534,-74.9361,True,False
290041,ABIQUIU DAM,1963-10-02 00:00:00,2020-01-02 00:00:00,36.2402,-106.4277,True,False
290407,ANGEL FIRE 1S,1994-01-01 00:00:00,2020-06-01 00:00:00,36.3949,-105.2852,True,False
290417,ANIMAS 3ESE,1970-01-01 00:00:00,2020-07-28 00:00:00,31.9380,-108.7688,True,False
290600,ARTESIA,1947-10-01 00:00:00,2020-04-02 00:00:00,32.8333,-104.4000,True,False
290640,AUGUSTINE 2E,1947-10-01 00:00:00,2020-07-10 00:00:00,34.0750,-107.6211,True,False
290818,BEAVERHEAD R/S,1948-07-01 00:00:00,2020-01-06 00:00:00,33.4286,-108.1000,True,False
291120,BONITO DAM,1947-10-01 00:00:00,2020-07-01 00:00:00,33.4486,-105.6847,True,False
291286,CABALLO DAM,1947-10-01 00:00:00,2020-08-03 00:00:00,32.8965,-107.3077,True,False
291440,CAPITAN,1976-01-09 00:00:00,2015-08-14 00:00:00,33.5311,-105.5947,True,False
291445,CAPROCK,2007-07-01 00:00:00,2020-03-02 00:00:00,33.3433,-103.6783,False,False
291469,CARLSBAD,1947-10-01 00:00:00,2020-05-14 00:00:00,32.3479,-104.2224,True,False
291963,CLOVIS 13 N,1949-07-01 00:00:00,2020-07-08 00:00:00,34.5988,-103.2161,True,False
291982,COCHITI DAM,1967-05-01 00:00:00,2020-05-06 00:00:00,35.6413,-106.3322,True,False
292030,CONCHAS DAM,1947-10-01 00:00:00,2020-07-01 00:00:00,35.4072,-104.1905,True,False
292100,CORRALES,1982-11-06 00:00:00,2020-07-01 00:00:00,35.2488,-106.5950,True,False
292241,CUBA,1970-07-01 00:00:00,2015-08-06 00:00:00,35.9951,-106.9704,True,False
292250,CUBERO,1977-01-01 00:00:00,2020-07-02 00:00:00,35.0883,-107.5177,True,False
292510,DILIA,1947-10-01 00:00:00,2019-09-06 00:00:00,35.1841,-105.0569,False,False
292665,DURAN,1947-10-01 00:00:00,2020-07-04 00:00:00,34.4691,-105.3975,True,False
292700,EAGLE NEST,1947-10-01 00:00:00,2020-07-01 00:00:00,36.5575,-105.2627,True,False
292837,EL VADO DAM,1947-10-01 00:00:00,2019-02-04 00:00:00,36.5927,-106.7300,True,False
293142,FARMINGTON AG SCIENCE CNT,1978-04-01 00:00:00,2020-07-02 00:00:00,36.6897,-108.3086,True,False
294009,HILLSBORO,1947-10-01 00:00:00,2020-08-01 00:00:00,32.9202,-107.5656,True,False
294030,HOBBS 13W,1996-11-01 00:00:00,2019-10-18 00:00:00,32.7125,-103.3538,True,False
294089,HONDO 1SE,1947-10-01 00:00:00,2015-08-14 00:00:00,33.3802,-105.2544,True,False
294112,HOPE,1965-05-02 00:00:00,2020-05-03 00:00:00,32.8095,-104.7379,True,False
294366,JEMEZ DAM,1953-10-01 00:00:00,2020-05-04 00:00:00,35.3886,-106.5438,True,False
294426,JORNADA EXP RANGE,1947-11-01 00:00:00,2020-08-03 00:00:00,32.6161,-106.7404,True,False
294862,LAS VEGAS WASTE WATER PLANT,1983-06-16 00:00:00,2019-04-24 00:00:00,35.5677,-105.2130,True,False
295370,MALJAMAR,1948-02-01 00:00:00,2012-11-06 00:00:00,32.8568,-103.7624,True,False
296041,NARBONA PASS,2007-01-03 00:00:00,2020-06-02 00:00:00,36.0763,-108.8580,False,False
296275,OCATE 2 NW,1960-08-26 00:00:00,2020-07-08 00:00:00,36.1838,-105.0608,True,False
296435,OROGRANDE,1947-11-01 00:00:00,2016-02-18 00:00:00,32.3788,-106.0924,True,False
296812,PIETOWN 19NE,1988-09-01 00:00:00,2020-06-02 00:00:00,34.4930,-107.8883,True,False
297094,PROGRESSO,1947-11-01 00:00:00,2018-10-30 00:00:00,34.4208,-105.8913,True,False
297180,QUEMADO,2002-03-01 00:00:00,2020-04-03 00:00:00,34.3447,-108.4922,True,False
297279,RATON FILTER PLANT,1953-09-02 00:00:00,2020-04-22 00:00:00,36.9194,-104.4325,True,False
297423,RIENHARDT RANCH,1951-10-01 00:00:00,2019-07-11 00:00:00,33.7527,-107.2094,True,False
297614,ROSWELL 2 S,2003-12-01 00:00:00,2017-07-09 00:00:00,33.3075,-104.5280,False,False
297638,ROY,1947-11-01 00:00:00,2017-04-05 00:00:00,35.9331,-104.1375,True,False
297649,RUIDOSO,1947-11-01 00:00:00,2015-08-14 00:00:00,33.3677,-105.6611,True,False
297736,SACRAMENTO # 2,1974-11-20 00:00:00,2020-08-04 00:00:00,32.7909,-105.5606,True,False
298085,SANTA FE 2,1972-03-22 00:00:00,2020-07-01 00:00:00,35.6194,-105.9753,True,False
298127,SANTA TERESA AIRPORT,2002-03-01 00:00:00,2020-08-01 00:00:00,31.8727,-106.6980,False,False
298387,SOCORRO,1948-07-01 00:00:00,2020-07-06 00:00:00,34.0605,-106.8842,True,False
298501,SPRINGER,1947-11-01 00:00:00,2020-04-01 00:00:00,36.3627,-104.5849,True,False
298518,STANLEY 2 NNE,1954-12-01 00:00:00,2019-12-15 00:00:00,35.1766,-105.9438,True,False
298535,STATE UNIVERSITY,1959-04-01 00:00:00,2020-08-01 00:00:00,32.2823,-106.7598,True,False
298596,SUMNER LAKE,1975-01-01 00:00:00,2020-07-06 00:00:00,34.6033,-104.3811,True,False
298834,THOREAU 12 SE,1994-07-01 00:00:00,2015-11-24 00:00:00,35.3000,-108.1472,True,False
299031,TORREON NAVAJO MISSION,1961-01-21 00:00:00,2020-07-01 00:00:00,35.7991,-107.1813,True,False
299156,TUCUMCARI 4 NE,1947-11-01 00:00:00,2020-07-01 00:00:00,35.2005,-103.6866,True,False
299569,WASTE ISOLT'N PILOT PLT,1986-09-01 00:00:00,2020-05-04 00:00:00,32.3779,-103.7987,True,False
299686,WHITE SANDS NATL MON,1947-11-01 00:00:00,2020-08-12 00:00:00,32.7822,-106.1759,True,False
093044,ZUNI CAA,1949-03-01 00:00:00,2020-01-02 00:00:00,35.1000,-108.7833,False,False
014743,CANTON 4 SE,1948-05-01 00:00:00,2020-02-03 00:00:00,44.5772,-75.1097,False,False
301265,CAYUGA LOCK NO 1,1979-10-19 00:00:00,2020-02-03 00:00:00,42.9480,-76.7342,True,False
301708,CONKLINGVILLE DAM,1950-02-01 00:00:00,2017-07-18 00:00:00,43.3203,-73.9256,True,False
302454,EAST SIDNEY,1950-04-01 00:00:00,2020-03-02 00:00:00,42.3328,-75.2298,True,False
302953,FORT PLAIN,1949-10-01 00:00:00,2017-04-07 00:00:00,42.9383,-74.6228,True,False
303033,FREDONIA,1977-07-01 00:00:00,2011-11-09 00:00:00,42.4496,-79.3119,True,False
303184,GENEVA RESEARCH FARM,1968-05-01 00:00:00,2020-07-02 00:00:00,42.8766,-77.0307,True,False
303851,HIGHMARKET,1968-09-01 00:00:00,2020-05-01 00:00:00,43.5752,-75.5207,True,False
303983,HORNELL ALMOND DAM,1950-02-09 00:00:00,2020-08-03 00:00:00,42.3488,-77.7044,True,False
304025,HUDSON CORRECTIONAL FACILITY,1957-03-01 00:00:00,2017-01-03 00:00:00,42.2475,-73.7922,True,False
304102,INDIAN LAKE 2SW,1948-05-01 00:00:00,2017-11-14 00:00:00,43.7548,-74.2756,True,False
304174,ITHACA CORNELL UNIV,1948-05-01 00:00:00,2020-03-04 00:00:00,42.4492,-76.4491,True,False
304207,JAMESTOWN 4 ENE,1960-09-09 00:00:00,2020-05-15 00:00:00,42.1100,-79.1591,True,False
304555,LAKE PLACID 2 S,1948-05-01 00:00:00,2020-01-02 00:00:00,44.3042,-73.9839,True,False
304912,LOWVILLE,1987-04-14 00:00:00,2020-07-01 00:00:00,43.7929,-75.4829,True,False
305435,MONGAUP VALLEY,1974-09-01 00:00:00,2020-08-03 00:00:00,41.6667,-74.7833,False,False
305597,MOUNT MORRIS 2 W,1950-06-09 00:00:00,2020-03-04 00:00:00,42.7313,-77.9054,True,False
306314,OSWEGO,1948-05-01 00:00:00,2020-01-23 00:00:00,43.4499,-76.5369,True,False
306623,PISECO,1948-10-01 00:00:00,2011-03-31 00:00:00,43.4614,-74.5231,True,False
306825,POUGHKEEPSIE 1 N,1953-02-19 00:00:00,2014-06-20 00:00:00,41.7167,-73.9333,False,False
307549,SCHUYLERVILLE,1948-05-01 00:00:00,2014-06-24 00:00:00,43.1131,-73.5775,True,False
308248,STILLWATER RESERVOIR,1948-05-01 00:00:00,2015-10-19 00:00:00,43.8999,-75.0367,True,False
308290,STONY POINT 2E,1978-07-01 00:00:00,2010-08-04 00:00:00,43.8389,-76.2675,True,False
308507,TICONDEROGA B MILL,1961-01-01 00:00:00,2020-01-16 00:00:00,43.8468,-73.4281,True,False
308586,TRIBES HILL,1948-05-01 00:00:00,2017-04-04 00:00:00,42.9464,-74.2886,True,False
308839,VICTOR 2NW,1948-05-01 00:00:00,2020-07-01 00:00:00,43.0044,-77.4473,True,False
308910,WALES,1948-07-01 00:00:00,2020-03-31 00:00:00,42.7392,-78.5878,True,False
308944,WANAKENA RNGR SCHOOL,1948-05-01 00:00:00,2013-04-15 00:00:00,44.1480,-74.9003,True,False
309000,WATERTOWN,1948-05-01 00:00:00,2020-07-01 00:00:00,43.9761,-75.8753,True,False
309072,WELLSVILLE,1955-12-01 00:00:00,2020-05-01 00:00:00,42.1173,-77.9475,True,False
309374,WHIPPLEVILLE 2NW,1948-05-01 00:00:00,2019-12-02 00:00:00,44.8418,-74.2828,True,False
309389,WHITEHALL,1948-05-01 00:00:00,2016-12-02 00:00:00,43.5575,-73.4011,True,False
309442,WHITNEY POINT DAM,1948-05-01 00:00:00,2020-05-20 00:00:00,42.3419,-75.9653,True,False
310312,ASHFORD,1948-06-01 00:00:00,2019-03-01 00:00:00,35.8922,-81.9352,True,False
310438,BADIN,1948-04-01 00:00:00,2020-06-16 00:00:00,35.4591,-80.1827,True,False
310750,B. EVERETT JORDAN DAM,1978-07-01 00:00:00,2020-06-10 00:00:00,35.6542,-79.0706,False,False
311241,BURLINGTON,1948-06-01 00:00:00,2020-06-16 00:00:00,36.0936,-79.4321,True,False
311515,CARTHAGE 1 SSE,1958-03-14 00:00:00,2020-06-18 00:00:00,35.3333,-79.4000,True,False
311881,CLINTON 2 NE,1971-02-01 00:00:00,2020-06-10 00:00:00,35.0251,-78.2760,True,False
312631,EDEN,1969-10-01 00:00:00,2020-07-01 00:00:00,36.4742,-79.7433,True,False
312719,ELIZABETH CITY,1954-11-19 00:00:00,2020-05-06 00:00:00,36.3096,-76.2050,True,False
312732,ELIZABETHTOWN,1948-06-01 00:00:00,2020-02-28 00:00:00,34.6272,-78.6113,True,False
313017,FAYETTEVILLE (PWC),1972-07-01 00:00:00,2020-06-18 00:00:00,35.0591,-78.8588,True,False
313638,GREENVILLE,1955-10-11 00:00:00,2020-07-06 00:00:00,35.6400,-77.3984,True,False
314675,KING,1999-07-01 00:00:00,2020-07-01 00:00:00,36.2838,-80.3624,True,False
314764,LAKE LURE 2,1948-06-01 00:00:00,2020-08-02 00:00:00,35.4204,-82.1875,False,False
314860,LAURINBURG,1948-06-01 00:00:00,2020-06-18 00:00:00,34.7502,-79.4663,True,False
314970,LEXINGTON,1979-12-01 00:00:00,2020-06-16 00:00:00,35.8457,-80.2599,True,False
013766,MANTEO AIRPORT,1982-04-01 00:00:00,2020-07-08 00:00:00,35.9173,-75.7000,False,False
315814,MOORESVILLE 2 WNW,1949-03-01 00:00:00,2020-08-01 00:00:00,35.5938,-80.8391,True,False
315830,MOREHEAD CITY 2 WNW,1948-06-01 00:00:00,2020-07-02 00:00:00,34.7336,-76.7357,True,False
315890,MOUNT AIRY 2 W,2006-05-05 00:00:00,2020-07-01 00:00:00,36.4962,-80.6523,True,False
315945,MOUNT PLEASANT,1948-06-01 00:00:00,2020-08-05 00:00:00,35.4116,-80.4308,True,False
316096,NEWPORT/MOREHEAD CITY WFO,2000-07-30 00:00:00,2020-07-06 00:00:00,34.7763,-76.8770,False,False
316256,NORTH WILKESBORO,2007-05-23 00:00:00,2019-09-10 00:00:00,36.1638,-81.1536,True,True
316349,OCRACOKE,2004-02-01 00:00:00,2016-09-01 00:00:00,35.1075,-75.9872,False,False
317079,RALEIGH STATE UNIV,1948-06-01 00:00:00,2020-06-10 00:00:00,35.7908,-78.6988,True,False
317319,ROANOKE RAPIDS,1971-09-01 00:00:00,2020-06-19 00:00:00,36.4789,-77.6714,True,False
317324,ROARING GAP 1 NW,1942-10-01 00:00:00,2018-01-16 00:00:00,36.4087,-80.9954,True,False
317845,SHELBY 2 NW,1994-09-01 00:00:00,2020-07-31 00:00:00,35.3110,-81.5710,True,False
319354,WHITEVILLE 5 S,1993-07-01 00:00:00,2011-07-12 00:00:00,34.2572,-78.6872,True,False
319476,WILSON 3 SW,1940-08-01 00:00:00,2020-06-02 00:00:00,35.6938,-77.9460,True,False
319555,W. KERR SCOTT RESV.,2006-09-01 00:00:00,2020-07-01 00:00:00,36.1308,-81.2275,True,False
319675,YADKINVILLE 6 E,1948-06-01 00:00:00,2020-06-26 00:00:00,36.1306,-80.5481,True,False
320022,ADAMS 7 SSW,1977-06-21 00:00:00,2020-05-06 00:00:00,48.3300,-98.1184,True,False
320189,AMBROSE 3 N,1977-11-16 00:00:00,2020-07-02 00:00:00,48.9975,-103.4877,True,False
320382,ASHLEY,1948-08-01 00:00:00,2020-07-01 00:00:00,46.0405,-99.3741,True,False
320450,BALDHILL DAM,1954-01-01 00:00:00,2020-07-05 00:00:00,47.0360,-98.0831,True,False
320492,BALFOUR 2 SW,1948-08-01 00:00:00,2020-07-15 00:00:00,47.9180,-100.5400,True,False
320995,BOWMAN,1948-08-01 00:00:00,2020-07-02 00:00:00,46.1936,-103.3714,True,False
321288,CANDO 1E,1950-09-01 00:00:00,2020-05-05 00:00:00,48.4869,-99.1976,True,False
321362,CARRINGTON 4 N,1976-03-08 00:00:00,2020-07-13 00:00:00,47.5088,-99.1211,True,False
321435,CAVALIER 7NW,1977-06-23 00:00:00,2020-07-01 00:00:00,48.8624,-97.7015,True,False
322188,DICKINSON,1971-11-01 00:00:00,2020-07-01 00:00:00,46.8914,-102.7792,True,False
322365,DUNN CENTER  1E,1982-04-01 00:00:00,2020-07-11 00:00:00,47.3466,-102.5869,True,False
323496,GLEN ULLIN,1948-08-01 00:00:00,2016-10-04 00:00:00,46.8116,-101.8302,True,False
323621,GRAND FORKS UNIV (NWS),1960-11-16 00:00:00,2020-07-29 00:00:00,47.9217,-97.0975,True,False
323926,HANNAFORD,1948-08-01 00:00:00,2019-09-26 00:00:00,47.3111,-98.1856,True,False
324083,HAZELTON 4NW,1948-08-01 00:00:00,2020-07-01 00:00:00,46.5203,-100.3478,True,False
324180,HETTINGER EXP STA,1980-08-11 00:00:00,2020-07-02 00:00:00,46.0044,-102.6472,True,False
324958,LANGDON EXP FARM,1978-09-19 00:00:00,2020-07-02 00:00:00,48.7622,-98.3447,True,False
325078,LEEDS,1977-06-20 00:00:00,2007-06-04 00:00:00,48.2881,-99.4317,True,False
325479,MANDAN EXP STATION,1948-10-01 00:00:00,2020-06-01 00:00:00,46.8127,-100.9097,True,False
325720,MC GREGOR,1948-08-01 00:00:00,2017-06-01 00:00:00,48.5969,-102.9283,True,False
325993,MINOT EXP STATION,1952-09-01 00:00:00,2020-07-01 00:00:00,48.1802,-101.2963,True,False
326105,MONTPELIER,1978-04-17 00:00:00,2020-07-03 00:00:00,46.7005,-98.5839,True,False
326620,OAKES,1948-08-01 00:00:00,2019-06-19 00:00:00,46.1458,-98.0919,True,False
014924,PEMBINA,1948-08-01 00:00:00,2019-10-01 00:00:00,48.9713,-97.2414,False,False
327405,RAUB 5 NNE,1948-08-01 00:00:00,2014-09-02 00:00:00,47.8133,-102.0233,True,False
327530,RICHARDTON ABBEY,1949-12-01 00:00:00,2020-07-07 00:00:00,46.8886,-102.3191,True,False
327585,RIVERDALE,1948-10-01 00:00:00,2020-07-27 00:00:00,47.4914,-101.3775,True,False
327655,ROLETTE 3SE,1949-11-02 00:00:00,2020-05-11 00:00:00,48.6297,-99.8069,True,False
328792,TOWNER 2 NE,1977-10-05 00:00:00,2020-07-15 00:00:00,48.3706,-100.3907,True,False
328853,TUTTLE 12NNE,1999-02-01 00:00:00,2012-11-02 00:00:00,47.3013,-99.9188,True,False
329219,WATAUGA S DAK 8 N,1977-10-19 00:00:00,2019-10-02 00:00:00,46.0233,-101.5663,True,False
330059,AKRON WPCS,1957-03-01 00:00:00,2020-07-06 00:00:00,41.1573,-81.5664,True,False
330107,ALLIANCE 3 NNW,1948-08-01 00:00:00,2020-06-28 00:00:00,40.9551,-81.1167,True,False
330493,BEACH CITY LAKE,1948-08-01 00:00:00,2020-06-01 00:00:00,40.6335,-81.5577,True,False
330639,BERLIN LAKE,1948-08-01 00:00:00,2020-07-04 00:00:00,41.1169,-81.0094,True,False
