StnID,Lat,Lon,Elev,State/Province,Name,WMO_ID,Sample_Interval (min),UTC_Offset,POR_Date_Range,PCT_POR_Good,Last_Half_POR,PCT_Last_Half_Good,Last_Qtr_POR,PCT_Last_Qtr_Good
USC00010008,31.5702,-85.2482,139.0,AL,ABBEVILLE,,15,-6,19480601-20180418, 83.6%,19830510-20180418, 70.2%,20001028-20180418, 65.8%
USC00010063,34.2553,-87.1814,249.3,AL,ADDISON,,15,-6,19480601-20210606, 85.8%,19841203-20210606, 83.2%,20030306-20210606, 74.6%
USC00010140,32.2322,-87.4104,53.3,AL,ALBERTA,,15,-6,19630926-20211231, 94.4%,19921112-20211231, 92.0%,20070607-20211231, 89.7%
USC00010252,31.3071,-86.5226,76.2,AL,ANDALUSIA 3 W,,15,-6,19800301-20180205, 89.1%,19990217-20180205, 92.3%,20080812-20180205, 97.5%
USC00010369,33.2941,-85.7788,311.5,AL,ASHLAND 3 ENE,,15,-6,19480601-20130804, 84.6%,19810101-20130804, 81.4%,19970418-20130804, 70.7%
USC00010390,34.7752,-86.9508,210.0,AL,ATHENS,,15,-6,19820601-20211231, 83.7%,20020317-20211231, 90.9%,20120207-20211231, 98.7%
USC00010402,31.1820,-87.4390,91.4,AL,ATMORE,,15,-6,19480601-20211231, 63.3%,19850317-20211231, 84.4%,20030809-20211231, 94.8%
USC00010425,32.5992,-85.4653,166.1,AL,AUBURN NO.2,,15,-6,20001201-20211231, 83.7%,20110617-20211231, 97.2%,20160923-20211231, 96.7%
USC00010748,33.6971,-87.6488,150.3,AL,BERRY 3 NW,,15,-6,19480601-20211231, 78.9%,19850317-20211231, 79.8%,20030809-20211231, 83.2%
USC00010957,34.2008,-86.1633,326.1,AL,BOAZ,,15,-6,19480601-20211231, 82.3%,19850317-20211231, 73.4%,20030809-20211231, 88.5%
USC00011099,34.9786,-85.8008,202.4,AL,BRIDGEPORT 5 NW,,15,-6,19821101-20211231, 87.7%,20020601-20211231, 92.3%,20120316-20211231, 98.1%
USC00012124,32.8622,-85.7358,223.4,AL,DADEVILLE 2,,15,-6,19480601-20211231, 87.9%,19850317-20211231, 80.9%,20030809-20211231, 73.9%
USC00012172,30.2505,-88.0775,2.4,AL,DAUPHIN ISLAND #2,,15,-6,19750801-20211231, 91.6%,19981016-20211231, 88.1%,20100524-20211231, 89.4%
USC00012377,31.2833,-85.4000,95.1,AL,DOTHAN 4 NW,,15,-6,19520401-20211231, 84.0%,19870215-20211231, 81.6%,20040724-20211231, 78.3%
USC00012675,31.2975,-85.8996,102.7,AL,ENTERPRISE 4 W,,15,-6,19710401-20210702, 83.4%,19960516-20210702, 80.9%,20081208-20210702, 80.7%
USC00013043,34.4406,-85.7236,279.5,AL,FORT PAYNE,,15,-6,19480601-20211231, 85.4%,19850317-20211231, 84.5%,20030809-20211231, 97.1%
USC00013519,31.7901,-86.6087,104.2,AL,GREENVILLE,,15,-6,19710901-20211231, 88.8%,19961031-20211231, 84.0%,20090601-20211231, 92.7%
USC00013620,34.2314,-87.6352,280.4,AL,HALEYVILLE,,15,-6,19480601-20211231, 85.4%,19850317-20211231, 79.1%,20030809-20211231, 78.6%
USC00013645,34.1388,-87.9947,149.4,AL,HAMILTON,,15,-6,19671103-20210209, 82.3%,19940622-20210209, 81.6%,20071016-20210209, 91.9%
USC00014193,31.5253,-87.9277,67.1,AL,JACKSON,,15,-6,19611023-20211231, 81.3%,19911127-20211231, 86.8%,20061214-20211231, 92.1%
USC00014209,33.8259,-85.7812,192.0,AL,JACKSONVILLE,,15,-6,19480601-20211231, 82.7%,19850317-20211231, 73.0%,20030809-20211231, 80.5%
USC00015397,32.0347,-85.4740,125.6,AL,MIDWAY,,15,-6,19480601-20211231, 83.4%,19850317-20211231, 77.7%,20030809-20211231, 66.6%
USC00015553,32.2600,-86.2180,68.6,AL,MONTGOMERY 6SW,,15,-6,19980331-20211231, 88.2%,20100214-20211231, 95.0%,20160123-20211231, 98.2%
USC00018178,31.9172,-87.7347,118.9,AL,THOMASVILLE,,15,-6,19671102-20140313, 93.5%,19910106-20140313, 93.4%,20020809-20140313, 94.5%
USC00018209,32.9205,-86.6708,207.3,AL,THORSBY EXP STATION,,15,-6,19700301-20211231, 89.6%,19960130-20211231, 90.4%,20090114-20211231, 88.5%
USC00018325,31.8351,-85.9329,168.9,AL,TROY #2,,15,-6,20120510-20211231, 94.7%,20170306-20211231, 96.9%,20190803-20211231, 95.2%
USC00018385,33.2097,-87.5936,46.3,AL,TUSCALOOSA OLIVER DAM,,15,-6,19580113-20211231, 70.8%,19900106-20211231, 59.9%,20060103-20211231, 79.0%
USC00018517,33.7392,-88.1275,90.8,AL,VERNON,,15,-6,19480601-20211231, 84.1%,19850317-20211231, 77.5%,20030809-20211231, 82.6%
USC00018670,33.7924,-86.8258,158.5,AL,WARRIOR,,15,-6,19720425-20211231, 78.4%,19970226-20211231, 82.6%,20090730-20211231, 89.3%
USC00018673,32.7747,-87.8306,33.5,AL,WARRIOR LOCK AND DAM,,15,-6,19571204-20211231, 83.7%,19891217-20211231, 81.2%,20051224-20211231, 84.4%
USC00020080,32.3698,-112.8599,533.7,AZ,AJO,,15,-7,19480701-20211231, 89.8%,19850401-20211231, 82.7%,20030816-20211231, 72.2%
USC00020487,35.1989,-112.4886,1546.9,AZ,ASH FORK 3,,15,-7,19480701-20210921, 89.2%,19850209-20210921, 86.5%,20030601-20210921, 86.8%
USC00020808,33.4783,-109.7516,1848.6,AZ,BLACK RIVER PUMPS,,15,-7,19480701-20211116, 82.6%,19850309-20211116, 72.3%,20030713-20211116, 62.6%
USC00021574,34.5400,-110.9152,2135.4,AZ,CHEVELON RANGER STATION,,15,-7,19820201-20211104, 84.3%,20011218-20211104, 80.4%,20111126-20211104, 86.6%
USC00021749,34.0500,-110.4500,1617.0,AZ,CIBECUE,,15,-7,19800701-20211104, 68.8%,20010303-20211104, 77.1%,20110704-20211104, 79.8%
USC00021870,32.0588,-109.8908,1274.1,AZ,COCHISE 4 SSE,,15,-7,19480701-20211118, 78.2%,19850310-20211118, 61.9%,20030715-20211118, 32.8%
USC00022329,34.2097,-112.3453,1804.4,AZ,CROWN KING,,15,-7,19800601-20211103, 79.7%,20010216-20211103, 74.8%,20110626-20211103, 81.5%
USC00022754,32.7480,-109.1213,1115.6,AZ,DUNCAN,,15,-7,19750828-20211231, 79.4%,19981029-20211231, 68.2%,20100531-20211231, 77.2%
USC00023009,35.1611,-111.7311,2171.7,AZ,FLAGSTAFF 4 SW,,15,-7,20030317-20211106, 66.3%,20120711-20211106, 92.6%,20170309-20211106, 99.8%
USC00024534,31.8352,-110.3552,1429.5,AZ,KARTCHNER CAVERNS,,15,-7,20100302-20211231, 83.7%,20160131-20211231, 95.1%,20190115-20211231, 96.4%
USC00024586,35.8109,-110.1932,1891.3,AZ,KEAMS CANYON,,15,-7,19480701-20160817, 84.4%,19820725-20160817, 78.9%,19990806-20160817, 77.5%
USC00025344,34.3709,-112.1827,1252.1,AZ,MAYER NO. 2,,15,-7,19861201-20211004, 84.8%,20040503-20211004, 85.0%,20130117-20211004, 90.0%
USC00025635,34.6105,-111.8380,969.3,AZ,MONTEZUMA CASTLE NM,,15,-7,19790719-20211105, 87.0%,20000911-20211105, 81.2%,20110409-20211105, 76.2%
USC00025924,31.4554,-110.9680,1054.9,AZ,NOGALES 6 N,,15,-7,19830902-20211231, 80.5%,20021101-20211231, 68.9%,20120601-20211231, 88.7%
USC00026037,34.9599,-111.7553,1560.0,AZ,OAK CREEK CANYON,,15,-7,20160814-20211024, 80.5%,20190320-20211024, 76.0%,20200706-20211024, 52.1%
USC00026117,32.6100,-110.7317,1400.6,AZ,ORACLE STATE PARK,,15,-7,20130815-20211231, 93.2%,20171023-20211231, 99.0%,20191127-20211231, 98.0%
USC00026119,32.6025,-110.7344,1374.6,AZ,ORACLE 2 SE,,15,-7,19500224-20100407, 84.4%,19800316-20100407, 77.4%,19950327-20100407, 60.9%
USC00026468,34.7994,-109.8850,1659.9,AZ,PETRIFIED FOREST NP,,15,-7,19480701-20211101, 87.7%,19850302-20211101, 82.8%,20030702-20211101, 86.8%
USC00027708,34.8955,-111.7644,1286.3,AZ,SEDONA,,15,-7,19730412-20100901, 85.6%,19911222-20100901, 82.1%,20010427-20100901, 84.4%
USC00027876,33.7986,-110.9714,1554.5,AZ,SIERRA ANCHA,,15,-7,19760101-20211104, 80.4%,19981203-20211104, 72.1%,20100520-20211104, 83.2%
USC00029158,34.9281,-112.8097,1551.4,AZ,WALNUT CREEK,,15,-7,19790720-20211104, 83.8%,20000911-20211104, 87.6%,20110409-20211104, 86.2%
USC00029271,33.8215,-109.9840,1575.8,AZ,WHITERIVER 1 SW,,15,-7,19480701-20110920, 90.6%,19800209-20110920, 84.1%,19951130-20110920, 80.2%
USC00030064,35.9307,-91.0550,78.6,AR,ALICIA 2NNE,,15,-6,19480529-20211231, 88.0%,19850315-20211231, 86.0%,20030808-20211231, 94.1%
USC00030130,34.7961,-92.8417,212.8,AR,ALUM FORK,,15,-6,19480501-20211231, 91.3%,19850301-20211231, 89.2%,20030801-20211231, 92.4%
USC00030178,34.0275,-93.4332,91.4,AR,ANTOINE 1 SW,,15,-6,19500810-20211231, 85.9%,19860421-20211231, 77.7%,20040225-20211231, 76.2%
USC00030220,34.1433,-93.0589,59.7,AR,ARKADELPHIA 2 N,,15,-6,19480501-20211231, 91.5%,19850301-20211231, 84.6%,20030801-20211231, 74.3%
USC00030326,35.2894,-91.3533,59.4,AR,AUGUSTA,,15,-6,19480501-20211231, 86.8%,19850301-20211231, 85.4%,20030801-20211231, 88.1%
USC00030458,35.8306,-91.7944,174.0,AR,BATESVILLE LVSTK,,15,-6,19490801-20211231, 94.1%,19851016-20211231, 94.3%,20031123-20211231, 95.3%
USC00030530,35.0644,-91.8961,76.2,AR,BEEBE,,15,-6,19480501-20211231, 87.0%,19850301-20211231, 89.5%,20030801-20211231, 91.1%
USC00030616,36.4294,-93.6255,359.7,AR,BERRYVILLE 5 NW,,15,-6,19480501-20141126, 94.5%,19810813-20141126, 91.4%,19980405-20141126, 86.9%
USC00030764,34.5697,-93.1947,129.8,AR,BLAKELY MOUNTAIN DAM,,15,-6,19500501-20211231, 87.6%,19860301-20211231, 82.8%,20040130-20211231, 88.5%
USC00030798,35.1161,-93.6506,129.8,AR,BLUE MOUNTAIN DAM,,15,-6,19480501-20211231, 95.7%,19850301-20211231, 93.2%,20030801-20211231, 94.3%
USC00030832,35.0930,-93.9258,182.9,AR,BOONEVILLE 3 SSE,,15,-6,19780406-20211231, 89.6%,20000217-20211231, 86.1%,20110124-20211231, 86.1%
USC00030842,35.7264,-92.4672,387.4,AR,BOTKINBURG 3 NE,,15,-6,19480501-20201101, 88.3%,19840801-20201101, 83.1%,20020916-20201101, 91.3%
USC00030900,34.9458,-93.4637,140.2,AR,BRIGGSVILLE,,15,-6,19851101-20181023, 82.8%,20020428-20181023, 76.3%,20100726-20181023, 63.5%
USC00030936,34.8822,-91.2152,56.4,AR,BRINKLEY,,15,-6,19480501-20170922, 90.6%,19830111-20170922, 85.8%,20000517-20170922, 82.4%
USC00031020,36.3647,-92.5781,146.3,AR,BULL SHOALS DAM,,15,-6,19480501-20211231, 90.0%,19850301-20211231, 84.4%,20030801-20211231, 75.0%
USC00031140,33.3053,-92.4866,29.0,AR,CALION LOCK & DAM,,15,-6,19851001-20210921, 78.0%,20030926-20210921, 68.6%,20120923-20210921, 73.0%
USC00031152,33.5900,-92.8236,35.4,AR,CAMDEN 1,,15,-6,19660427-20211006, 81.6%,19940115-20211006, 71.0%,20071126-20211006, 56.0%
USC00031457,35.5328,-93.4036,259.1,AR,CLARKSVILLE 6 NE,,15,-6,19611201-20211231, 89.0%,19911216-20211231, 83.6%,20061223-20211231, 93.2%
USC00031582,36.0913,-93.3208,648.9,AR,COMPTON,,15,-6,19480501-20211231, 90.7%,19850301-20211231, 85.4%,20030801-20211231, 83.2%
USC00031632,36.4197,-90.5858,91.4,AR,CORNING,,15,-6,19480501-20211203, 82.4%,19850215-20211203, 79.3%,20030711-20211203, 83.5%
USC00031948,34.0463,-94.3480,124.1,AR,DEQUEEN,,15,-6,20080310-20211213, 81.5%,20150126-20211213, 95.1%,20180705-20211213, 96.3%
USC00031952,34.1002,-94.3724,169.8,AR,DE QUEEN DAM,,15,-6,19730503-20080205, 89.2%,19900919-20080205, 81.9%,19990529-20080205, 79.7%
USC00032015,34.1266,-94.0172,143.3,AR,DIERKS,,15,-6,20051220-20211231, 81.2%,20131225-20211231, 94.1%,20171228-20211231, 95.9%
USC00032148,33.8885,-91.5316,49.7,AR,DUMAS,,15,-6,19610201-20211231, 82.3%,19910718-20211231, 68.1%,20061009-20211231, 49.6%
USC00032356,36.4163,-93.7916,432.8,AR,EUREKA SPRINGS 3 WNW,,15,-6,19490701-20120925, 96.4%,19810211-20120925, 95.2%,19961203-20120925, 92.4%
USC00032444,36.1010,-94.1737,387.1,AR,FAYETTEVILLE EXP STA,,15,-6,19660413-20211231, 86.8%,19940220-20211231, 79.5%,20080126-20211231, 81.7%
USC00032489,34.7594,-92.4553,150.0,AR,FERNDALE 6 E,,15,-6,19810504-20211221, 90.5%,20010827-20211221, 93.8%,20111024-20211221, 94.8%
USC00032544,33.7222,-94.3975,128.9,AR,FOREMAN,,15,-6,19480501-20211231, 83.6%,19850301-20211231, 79.6%,20030801-20211231, 78.1%
USC00032794,35.9885,-92.7161,184.7,AR,GILBERT,,15,-6,19480501-20211231, 95.0%,19850301-20211231, 92.2%,20030801-20211231, 92.3%
USC00032978,35.5206,-91.9997,160.6,AR,GREERS FERRY DAM,,15,-6,19650201-20211231, 95.5%,19930717-20211231, 94.7%,20071009-20211231, 97.1%
USC00033132,36.2747,-91.5056,121.9,AR,HARDY,,15,-6,19480501-20210608, 73.7%,19841118-20210608, 70.9%,20030227-20210608, 59.0%
USC00033544,36.0700,-93.7522,543.5,AR,HUNTSVILLE 1 SSW,,15,-6,19830501-20120925, 90.1%,19980112-20120925, 88.6%,20050520-20120925, 90.0%
USC00034185,33.3613,-93.5674,103.6,AR,LEWISVILLE,,15,-6,19910401-20211231, 89.2%,20060816-20211231, 82.9%,20140424-20211231, 96.2%
USC00034548,33.2586,-93.1822,113.4,AR,MAGNOLIA,,15,-6,19480501-20211207, 51.3%,19850217-20211207, 76.1%,20030714-20211207, 75.3%
USC00034756,34.5979,-94.2900,351.1,AR,MENA,,15,-6,19480501-20211231, 94.4%,19850301-20211231, 90.8%,20030801-20211231, 92.8%
USC00034839,33.6772,-93.9902,96.3,AR,MILLWOOD DAM,,15,-6,19630711-20210921, 84.0%,19920815-20210921, 74.0%,20070304-20210921, 66.6%
USC00035110,34.1452,-93.7138,132.6,AR,NARROWS DAM,,15,-6,19500501-20201102, 89.7%,19850801-20201102, 87.2%,20030318-20201102, 91.4%
USC00035112,33.9293,-93.8507,121.9,AR,NASHVILLE,,15,-6,19660301-20211203, 89.5%,19940116-20211203, 81.0%,20071225-20211203, 70.3%
USC00035200,34.9553,-93.1594,146.3,AR,NIMROD DAM,,15,-6,19480501-20211231, 91.6%,19850301-20211231, 85.6%,20030801-20211231, 90.2%
USC00035228,36.2494,-92.2383,129.5,AR,NORFORK DAM,,15,-6,19480501-20211201, 90.5%,19850214-20211201, 85.3%,20030709-20211201, 77.3%
USW00003952,34.8353,-92.2596,171.6,AR,NORTH LITTLE ROCK WFO,72340,15,-6,19760101-20211231, 98.4%,19981231-20211231, 96.8%,20100701-20211231, 95.0%
USC00035602,35.9547,-93.2405,274.3,AR,PARTHENON,,15,-6,19480501-20150901, 88.4%,19811231-20150901, 79.2%,19981031-20150901, 81.4%
USC00035754,34.2255,-92.0185,70.1,AR,PINE BLUFF,,15,-6,19530101-20211231, 88.3%,19870702-20211231, 79.6%,20040930-20211231, 75.3%
USC00035908,33.8204,-93.3879,93.9,AR,PRESCOTT 2 NNW,,15,-6,19820801-20211026, 76.7%,20020314-20211026, 59.8%,20120104-20211026, 63.9%
USC00036393,35.8236,-93.7672,423.7,AR,ST. PAUL 1 E,,15,-6,19880301-20200402, 81.4%,20040317-20200402, 86.5%,20120325-20200402, 80.7%
USC00036403,36.3561,-91.8036,207.3,AR,SALEM,,15,-6,19870901-20120602, 41.4%,20000116-20120602, 16.0%,20060325-20120602,  1.3%
USC00036405,36.4261,-91.9158,274.3,AR,SALEM NO 2,,15,-6,20020401-20211215, 86.0%,20120207-20211215, 78.7%,20170110-20211215, 83.5%
USC00036920,34.4744,-91.4172,60.4,AR,STUTTGART 9 ESE,,15,-6,19480601-20211231, 95.6%,19850317-20211231, 92.9%,20030809-20211231, 95.8%
USC00037488,34.9229,-94.0944,218.2,AR,WALDRON,,15,-6,19480501-20211117, 88.1%,19850207-20211117, 77.4%,20030629-20211117, 75.9%
USC00038052,35.2547,-90.7965,79.2,AR,WYNNE,,15,-6,19790613-20211205, 89.3%,20000908-20211205, 88.0%,20110423-20211205, 94.1%
USC00040161,41.4901,-120.5437,1334.4,CA,ALTURAS,,15,-8,19480701-20211231, 91.9%,19850401-20211231, 87.5%,20030816-20211231, 78.2%
USC00040212,38.5730,-122.4405,522.7,CA,ANGWIN PACIFIC UNION COLLEGE,,15,-8,19671103-20211231, 87.3%,19941202-20211231, 88.6%,20080616-20211231, 87.5%
USC00040321,35.1844,-120.3980,282.5,CA,ARROYO GRANDE 11 ENE,,15,-8,19940107-20211231, 89.4%,20080104-20211231, 92.5%,20150102-20211231, 99.9%
USC00040322,36.2355,-121.4800,286.5,CA,ARROYO SECO,,15,-8,19481201-20180501, 88.1%,19830816-20180501, 82.2%,20001222-20180501, 92.0%
USC00040449,36.9092,-119.0883,528.8,CA,BALCH POWER HOUSE,,15,-8,19500201-20211231, 88.9%,19860116-20211231, 81.8%,20040108-20211231, 85.0%
USC00040546,40.3983,-122.1452,128.0,CA,BATTLE CREEK ADR,,15,-8,19710701-20211231, 84.7%,19960930-20211231, 83.9%,20090516-20211231, 94.0%
USC00040731,41.1208,-121.1347,1257.3,CA,BIEBER,,15,-8,19480701-20211231, 83.5%,19850401-20211231, 72.6%,20030816-20211231, 85.1%
USC00040742,34.2414,-116.9751,2077.2,CA,BIG BEAR LAKE DAM,,15,-8,19480701-20211220, 78.8%,19850326-20211220, 69.6%,20030808-20211220, 61.8%
USC00040790,36.2472,-121.7802,61.0,CA,BIG SUR STATION,,15,-8,19961202-20211231, 78.8%,20090617-20211231, 83.4%,20150924-20211231, 75.4%
USC00040883,38.9091,-120.6677,1345.4,CA,BLODGETT EXPER FOREST,,15,-8,19691001-20211231, 90.9%,19951116-20211231, 94.1%,20081208-20211231, 95.2%
USC00041005,37.1422,-122.1963,662.9,CA,BOULDER CR LOCAT RCH,,15,-8,19480701-20211201, 94.0%,19850317-20211201, 93.0%,20030725-20211201, 91.2%
USC00041018,39.4539,-120.6556,1641.3,CA,BOWMAN DAM,,15,-8,19480701-20160601, 85.0%,19820616-20160601, 79.7%,19990609-20160601, 77.1%
USC00041076,38.2505,-119.2161,1963.2,CA,BRIDGEPORT R.S.,,15,-8,19500609-20211208, 67.8%,19860309-20211208, 60.3%,20040123-20211208, 66.4%
USC00041130,39.6949,-121.3452,1085.1,CA,BRUSH CREEK RANGER STATION,,15,-8,19480701-20211227, 80.3%,19850330-20211227, 77.3%,20030813-20211227, 90.0%
USC00041142,35.7989,-121.0939,281.9,CA,BRYSON,,15,-8,19480701-20211231, 91.3%,19850401-20211231, 85.2%,20030816-20211231, 88.3%
USC00041194,34.1866,-118.3480,199.6,CA,BURBANK VALLEY PUMP PLANT,,15,-8,19480701-20211231, 93.1%,19850401-20211231, 87.5%,20030816-20211231, 89.7%
USC00041272,34.3899,-117.5758,1463.0,CA,CAJON WEST SUMMIT,,15,-8,19480701-20211231, 82.2%,19850401-20211231, 68.5%,20030816-20211231, 57.2%
USC00041277,38.2769,-120.3113,1431.0,CA,CALAVERAS BIG TREES,,15,-8,19860710-20211229, 86.9%,20040404-20211229, 92.5%,20130215-20211229, 91.4%
USC00041369,34.1491,-116.9802,1758.7,CA,CAMP ANGELUS,,15,-8,19480701-20211231, 86.2%,19850401-20211231, 80.8%,20030816-20211231, 64.8%
USC00041428,38.2486,-120.8433,200.6,CA,CAMP PARDEE,,15,-8,19480701-20211231, 96.1%,19850401-20211231, 94.5%,20030816-20211231, 95.5%
USC00041460,39.4397,-121.0712,762.0,CA,CAMPTONVILLE 1SW,,15,-8,19950210-20211231, 93.8%,20080721-20211231, 98.6%,20150411-20211231, 99.9%
USC00041497,40.1705,-121.0886,1389.9,CA,CANYON DAM,,15,-8,19751017-20211231, 88.4%,19981123-20211231, 88.2%,20100612-20211231, 94.4%
USC00041715,39.6911,-121.8211,56.4,CA,CHICO UNIVERSITY FARM,,15,-8,19480701-20211231, 92.1%,19850401-20211231, 92.2%,20030816-20211231, 96.0%
USC00041864,36.1356,-120.3606,204.2,CA,COALINGA,,15,-8,19480701-20210801, 49.8%,19850115-20210801, 78.5%,20030424-20210801, 77.9%
USC00041886,41.0894,-122.7086,762.9,CA,COFFEE CREEK RS,,15,-8,19601109-20211231, 82.6%,19910606-20211231, 72.1%,20060918-20211231, 77.6%
USC00042012,36.0975,-119.5817,61.0,CA,CORCORAN IRRIGATION DIST.,,15,-8,19560119-20211005, 86.2%,19881126-20211005, 74.1%,20050501-20211005, 67.8%
USC00042048,36.9897,-121.8050,82.3,CA,CORRALITOS,,15,-8,19580415-20211004, 75.8%,19900108-20211004, 81.9%,20051121-20211004, 76.7%
USC00042084,39.8261,-123.0850,462.4,CA,COVELO EEL RIVER RS,,15,-8,19480701-20211231, 78.1%,19850401-20211231, 67.5%,20030816-20211231, 64.3%
USC00042164,34.2393,-117.2988,1484.4,CA,CRESTLINE,,15,-8,19660418-20211231, 74.7%,19940223-20211231, 59.5%,20080127-20211231, 59.9%
USC00042239,32.9897,-116.5872,1414.3,CA,CUYAMACA,,15,-8,19670822-20211231, 81.9%,19941026-20211231, 69.6%,20080529-20211231, 66.7%
USC00042294,38.5349,-121.7761,18.3,CA,DAVIS 2 WSW EXP FARM,,15,-8,19480701-20211231, 90.7%,19850401-20211231, 85.2%,20030816-20211231, 76.2%
USC00042306,41.2115,-121.3738,1113.4,CA,DAY,,15,-8,19480701-20211231, 91.8%,19850401-20211231, 89.3%,20030816-20211231, 93.7%
USC00042500,39.5633,-120.8238,888.5,CA,DOWNIEVILLE,,15,-8,19480701-20211231, 93.5%,19850401-20211231, 93.3%,20030816-20211231, 95.7%
USC00042749,41.9880,-123.7183,520.6,CA,ELK VALLEY,,15,-8,19710501-20211231, 76.0%,19960830-20211231, 65.5%,20090501-20211231, 57.5%
USC00042899,41.4574,-122.8994,902.2,CA,ETNA,,15,-8,19480701-20211231, 95.3%,19850401-20211231, 94.2%,20030816-20211231, 93.5%
USC00042935,38.2880,-122.0344,33.5,CA,FAIRFIELD 3 NNE,,15,-8,19720201-20211231, 91.8%,19970115-20211231, 93.1%,20090709-20211231, 97.4%
USC00043038,38.5251,-120.6982,661.4,CA,FIDDLETOWN DEXTER RCH,,15,-8,19480701-20211231, 96.4%,19850401-20211231, 94.1%,20030816-20211231, 93.8%
USC00043161,39.5091,-123.7566,37.5,CA,FORT BRAGG 5 N,,15,-8,19480701-20211001, 79.2%,19850214-20211001, 69.5%,20030609-20211001, 61.4%
USC00043182,41.6010,-122.8478,831.8,CA,FORT JONES RS,,15,-8,19761117-20211231, 88.8%,19990610-20211231, 93.8%,20100920-20211231, 95.4%
USC00043194,40.2183,-123.6322,67.1,CA,FORT SEWARD,,15,-8,19720801-20211231, 67.5%,19970416-20211231, 75.1%,20090823-20211231, 86.0%
USC00043219,34.7333,-119.1038,1575.5,CA,FRAZIER PARK 9 SW,,15,-8,19940307-20211231, 96.0%,20080202-20211231, 97.8%,20150116-20211231, 99.6%
USC00043357,41.8452,-123.9647,118.0,CA,GASQUET RS,,15,-8,19710301-20211231, 80.9%,19960731-20211231, 78.4%,20090416-20211231, 77.0%
USC00043384,38.9330,-120.8008,914.7,CA,GEORGETOWN RS,,15,-8,19671101-20211231, 82.7%,19941201-20211231, 86.7%,20080616-20211231, 92.9%
USC00043402,34.5225,-119.6822,474.9,CA,GIBRALTAR DAM NO. 2,,15,-8,19700501-20211231, 95.2%,19960301-20211231, 94.7%,20090130-20211231, 95.3%
USC00043417,37.0030,-121.5608,59.1,CA,GILROY,,15,-8,20190328-20211231, 61.9%,20200813-20211231, 58.9%,20210422-20211231, 99.6%
USC00043419,37.0327,-121.4316,320.0,CA,GILROY 8 NE,,15,-8,19480701-20211231, 91.7%,19850401-20211231, 86.2%,20030816-20211231, 94.5%
USC00043573,39.2041,-121.0680,731.5,CA,GRASS VALLEY NO. 2,,15,-8,19660913-20211231, 86.4%,19940508-20211231, 77.5%,20080304-20211231, 77.0%
USC00043647,40.4863,-123.9088,125.9,CA,GRIZZLY CREEK STATE PARK,,15,-8,19950702-20121027, 66.1%,20040228-20121027, 67.8%,20080628-20121027, 78.8%
USC00043669,37.8444,-120.2258,853.4,CA,GROVELAND 2,,15,-8,19480701-20211231, 92.9%,19850401-20211231, 87.9%,20030816-20211231, 92.2%
USC00043761,41.7961,-123.3747,348.1,CA,HAPPY CAMP RANGER STATION,,15,-8,19480701-20211231, 87.7%,19850401-20211231, 82.1%,20030816-20211231, 81.3%
USC00043791,40.3636,-122.9650,838.2,CA,HARRISON GULCH RS,,15,-8,19481101-20211231, 86.8%,19850601-20211231, 83.1%,20030916-20211231, 86.4%
USC00043891,39.0583,-120.4150,1478.3,CA,HELL HOLE,,15,-8,19540101-20211231, 70.0%,19880101-20211231, 89.1%,20041231-20211231, 96.5%
USC00043928,36.3052,-120.7047,842.8,CA,HERNANDEZ 7 SE,,15,-8,19480701-20180731, 90.8%,19830716-20180731, 83.9%,20010121-20180731, 81.2%
USC00043939,37.9613,-119.7830,1179.6,CA,HETCH HETCHY,,15,-8,19480701-20211230, 93.9%,19850331-20211230, 91.4%,20030815-20211230, 91.7%
USC00044025,36.8483,-121.4213,83.8,CA,HOLLISTER 2,,15,-8,19480701-20211231, 85.9%,19850401-20211231, 77.5%,20030816-20211231, 95.9%
USC00044074,40.2375,-124.1322,113.7,CA,HONEYDEW 1 SW,,15,-8,19710701-20211231, 67.8%,19960930-20211231, 68.0%,20090516-20211231, 82.9%
USC00044089,41.0483,-123.6755,102.4,CA,HOOPA,,15,-8,19710601-20211231, 88.2%,19960915-20211231, 95.0%,20090509-20211231, 99.2%
USC00044191,40.6161,-123.4566,389.5,CA,HYAMPOM,,15,-8,19480701-20170407, 91.5%,19821118-20170407, 84.7%,20000127-20170407, 81.4%
USC00044232,36.7980,-118.2036,1204.0,CA,INDEPENDENCE,,15,-8,19480701-20190114, 93.1%,19831008-20190114, 88.0%,20010527-20190114, 79.2%
USC00044587,40.6422,-123.9149,744.6,CA,KNEELAND 10 SSE,,15,-8,19540617-20211231, 85.3%,19880324-20211231, 80.7%,20050210-20211231, 91.2%
USC00044689,39.2030,-123.1850,232.9,CA,LAKE MENDOCINO DAM,,15,-8,19720601-20211231, 80.9%,19970317-20211231, 73.3%,20090808-20211231, 81.7%
USC00044712,38.4920,-122.0039,57.0,CA,LAKE SOLANO,,15,-8,19621001-20211231, 93.2%,19920516-20211231, 94.3%,20070309-20211231, 96.8%
USC00044883,39.8744,-123.7205,214.3,CA,LEGGETT,,15,-8,19720801-20211231, 60.5%,19970416-20211231, 62.3%,20090823-20211231, 70.2%
USC00045067,36.4430,-118.0433,1155.2,CA,LONE PINE 11 S COTTONWOOD POWER HOUSE,,15,-8,19480701-20190101, 83.6%,19831001-20190101, 71.8%,20010517-20190101, 65.2%
USC00045100,35.3836,-118.4122,1290.8,CA,LORAINE 5 NNE,,15,-8,19870501-20200601, 58.9%,20031115-20200601, 43.4%,20120222-20200601, 48.5%
USC00045184,35.8780,-121.4497,108.2,CA,LUCIA WILLOW SPRINGS,,15,-8,19480701-20211231, 89.8%,19850401-20211231, 81.3%,20030816-20211231, 82.8%
USC00045242,40.3186,-123.3738,842.2,CA,MAD RIVER 12 SE,,15,-8,19961101-20211231, 89.0%,20090601-20211231, 91.0%,20150916-20211231, 89.4%
USC00045258,38.8547,-122.7819,728.5,CA,MAHNKE,,15,-8,19560101-20211231, 91.9%,19881231-20211231, 90.6%,20050701-20211231, 97.8%
USC00045623,40.1414,-120.3533,1481.3,CA,MILFORD LAUFMAN RS,,15,-8,19480701-20211231, 95.3%,19850401-20211231, 95.3%,20030816-20211231, 97.0%
USC00045679,40.3458,-121.6091,1485.9,CA,MINERAL,,15,-8,19480701-20211227, 82.7%,19850330-20211227, 77.3%,20030813-20211227, 87.6%
USC00045711,40.1816,-123.7761,81.1,CA,MIRANDA 4 SE,,15,-8,19650101-20211231, 83.8%,19930702-20211231, 77.2%,20071001-20211231, 76.4%
USC00045741,37.6255,-121.0313,27.1,CA,MODESTO 2,,15,-8,19480701-20211231, 94.7%,19850401-20211231, 94.1%,20030816-20211231, 96.7%
USC00045756,35.0492,-118.1619,833.6,CA,MOJAVE,,15,-8,19591101-20210303, 88.2%,19900702-20210303, 83.9%,20051101-20210303, 86.0%
USC00045785,41.7806,-122.4717,803.1,CA,MONTAGUE 5NE,,15,-8,19480701-20211231, 86.7%,19850401-20211231, 89.4%,20030816-20211231, 94.3%
USC00045802,36.5927,-121.8555,37.2,CA,MONTEREY WFO,,15,-8,19950701-20190203, 97.0%,20070418-20190203, 99.1%,20130311-20190203, 99.6%
USC00045853,37.1363,-121.6025,114.3,CA,MORGAN HILL,,15,-8,19480701-20211231, 88.9%,19850401-20211231, 90.5%,20030816-20211231, 93.1%
USC00045983,41.3167,-122.3167,1078.7,CA,MOUNT SHASTA WSO CITY,,15,-8,19480801-20211201, 85.9%,19850401-20211201, 71.9%,20030801-20211201, 63.6%
USC00045996,37.9027,-122.6033,446.5,CA,MOUNT TAMALPAIS 2 SW,,15,-8,19590625-20211231, 83.2%,19900927-20211231, 81.3%,20060515-20211231, 74.0%
USC00046105,39.1739,-123.5647,51.2,CA,NAVARRO 1 NW,,15,-8,19580201-20211231, 81.6%,19900116-20211231, 78.2%,20060108-20211231, 74.1%
USC00046115,34.8300,-114.5936,146.3,CA,NEEDLES,,15,-8,19530218-20150604, 82.7%,19840411-20150604, 75.6%,19991107-20150604, 81.9%
USC00046154,34.9455,-119.6827,658.4,CA,NEW CUYAMA FIRE STATION,,15,-8,19731211-20211231, 80.6%,19971221-20211231, 77.4%,20091226-20211231, 85.3%
USC00046174,38.0047,-120.4863,292.6,CA,NEW MELONES DAM HQ,,15,-8,19940101-20211231, 90.6%,20080101-20211231, 85.8%,20141231-20211231, 77.4%
USC00046232,39.3675,-120.8991,999.7,CA,NORTH BLOOMFIELD,,15,-8,19691001-20211231, 88.4%,19951116-20211231, 87.3%,20081208-20211231, 89.9%
USC00046513,41.3033,-123.5344,132.0,CA,ORLEANS RS,,15,-8,19710601-20211231, 72.5%,19960915-20211231, 91.2%,20090509-20211231, 88.9%
USC00046521,39.5177,-121.5530,52.1,CA,OROVILLE,,15,-8,19821101-20211231, 85.6%,20020601-20211231, 94.3%,20120316-20211231, 99.1%
USC00046577,34.6825,-119.3530,1090.3,CA,OZENA GUARD STATION,,15,-8,19721121-20211231, 90.7%,19970611-20211231, 92.4%,20090920-20211231, 95.4%
USC00046624,34.5883,-118.0938,796.1,CA,PALMDALE,,15,-8,19630213-20211231, 95.1%,19920723-20211231, 93.8%,20070412-20211231, 97.6%
USC00046726,39.8875,-122.5538,230.1,CA,PASKENTA RANGER STATION,,15,-8,19491201-20211231, 84.7%,19851216-20211231, 83.3%,20031224-20211231, 89.4%
USC00046730,35.6277,-120.6855,222.5,CA,PASO ROBLES,,15,-8,19760913-20211231, 94.3%,19990508-20211231, 91.8%,20100903-20211231, 98.1%
USC00046826,38.2577,-122.6077,6.1,CA,PETALUMA AIRPORT,,15,-8,19640603-20211231, 82.1%,19930318-20211231, 77.4%,20070809-20211231, 74.3%
USC00046893,38.1869,-120.0055,1706.9,CA,PINECREST SUMMIT RS,,15,-8,19641127-20211229, 86.6%,19930613-20211229, 83.3%,20070921-20211229, 94.9%
USC00046910,34.6102,-119.3666,1286.3,CA,PINE MOUNTAIN INN,,15,-8,19650120-20130430, 89.4%,19890311-20130430, 89.9%,20010405-20130430, 83.4%
USC00046964,38.7311,-120.8469,475.5,CA,PLACERVILLE DISP. PLANT,,15,-8,19630614-20211231, 95.6%,19920921-20211231, 96.2%,20070512-20211231, 98.4%
USC00046998,39.7578,-120.6964,1574.3,CA,PLUMAS EUREKA ST PARK,,15,-8,19640501-20211230, 85.8%,19930301-20211230, 77.9%,20070731-20211230, 69.8%
USC00047085,39.8053,-120.4719,1478.3,CA,PORTOLA,,15,-8,19541019-20211228, 86.2%,19880524-20211228, 85.8%,20050311-20211228, 86.9%
USC00047293,40.1622,-122.2202,80.8,CA,RED BLUFF TREATMENT PLANT,,15,-8,19920201-20211231, 87.7%,20070116-20211231, 91.9%,20140709-20211231, 98.9%
USC00047342,40.9069,-123.8147,269.1,CA,REDWOOD CREEK O'KANE,,15,-8,19750214-20211231, 60.3%,19980724-20211231, 58.4%,20100412-20211231, 69.2%
USC00047489,38.9027,-120.3766,1560.6,CA,ROBBS PEAK PH,,15,-8,19670201-20211231, 95.1%,19940717-20211231, 95.0%,20080408-20211231, 97.5%
USC00047600,34.2045,-117.0870,1824.8,CA,RUNNING SPRINGS 1 E,,15,-8,19480701-20211229, 85.9%,19850331-20211229, 79.2%,20030815-20211229, 73.0%
USC00047646,38.4930,-122.5383,542.5,CA,SAINT HELENA 4 WSW,,15,-8,19480701-20211231, 83.2%,19850401-20211231, 76.7%,20030816-20211231, 84.6%
USC00047851,35.3056,-120.6619,93.9,CA,SAN LUIS OBISPO POLY,,15,-8,19480701-20211231, 84.5%,19850401-20211231, 78.6%,20030816-20211231, 76.5%
USC00047867,35.7527,-120.6827,224.9,CA,SAN MIGUEL WOLF RANCH,,15,-8,19731220-20211231, 91.1%,19971225-20211231, 90.6%,20091228-20211231, 90.3%
USC00047902,34.4167,-119.6844,4.9,CA,SANTA BARBARA,,15,-8,19480701-20211231, 91.2%,19850401-20211231, 89.7%,20030816-20211231, 89.4%
USC00048025,41.3010,-123.1330,687.3,CA,SAWYERS BAR RS,,15,-8,19710601-20211231, 77.5%,19960915-20211231, 88.6%,20090509-20211231, 90.4%
USC00048072,38.4086,-122.8211,20.7,CA,SEBASTOPOL,,15,-8,19480701-20211201, 92.6%,19850317-20211201, 91.8%,20030725-20211201, 95.2%
USC00048135,40.7141,-122.4161,327.7,CA,SHASTA DAM,,15,-8,19480701-20211216, 92.6%,19850324-20211216, 90.1%,20030805-20211216, 91.3%
USC00048218,39.5833,-120.3705,1516.4,CA,SIERRAVILLE RS,,15,-8,19480701-20211231, 83.2%,19850401-20211231, 79.0%,20030816-20211231, 79.4%
USC00048261,34.2838,-118.8119,201.2,CA,SIMI SANITATION PLANT,,15,-8,19751031-20131107, 89.7%,19941103-20131107, 90.3%,20040506-20131107, 91.5%
USC00048332,39.3255,-120.3672,2098.5,CA,SODA SPRINGS 1 E,,15,-8,19610701-20211231, 80.7%,19911001-20211231, 88.6%,20061115-20211231, 91.1%
USC00048355,38.3511,-119.4500,2098.9,CA,SONORA JUNCTION,,15,-8,19590908-20211231, 90.8%,19901104-20211231, 89.8%,20060603-20211231, 91.6%
USC00048544,39.9041,-121.5280,1072.9,CA,STIRLING CITY RS,,15,-8,19571029-20211230, 76.9%,19891129-20211230, 73.5%,20051214-20211230, 81.7%
USC00048587,39.5861,-122.5341,243.8,CA,STONY GORGE RESERVOIR,,15,-8,19480701-20211231, 92.6%,19850401-20211231, 91.2%,20030816-20211231, 94.0%
USC00048680,36.8975,-121.8347,24.4,CA,SUNSET STATE BEACH,,15,-8,19561120-20200802, 90.9%,19880926-20200802, 92.2%,20040829-20200802, 93.5%
USC00048703,40.4239,-120.6747,1388.4,CA,SUSANVILLE 1 WNW,,15,-8,19520920-20211231, 86.6%,19870512-20211231, 80.5%,20040905-20211231, 79.9%
USC00048832,35.1308,-118.4325,1207.0,CA,TEHACHAPI AP,,15,-8,19480701-20210813, 90.2%,19850121-20210813, 87.8%,20030503-20210813, 86.7%
USC00048885,38.8038,-122.8127,530.4,CA,THE GEYSERS,,15,-8,19480701-20211231, 87.3%,19850401-20211231, 80.7%,20030816-20211231, 86.3%
USC00048912,36.3675,-118.8475,589.8,CA,THREE RIVERS 6 SE,,15,-8,19570109-20170801, 93.8%,19870421-20170801, 90.5%,20020611-20170801, 87.1%
USC00048913,36.3638,-118.8336,634.0,CA,THREE RIVERS 7 SE,,15,-8,20171204-20211231, 92.7%,20191218-20211231, 98.0%,20201224-20211231, 96.0%
USC00048917,36.4650,-118.8619,347.5,CA,THREE RIVERS EDISON PH 1,,15,-8,19480701-20211231, 94.1%,19850401-20211231, 92.6%,20030816-20211231, 92.3%
USC00049043,39.3330,-120.1730,1774.9,CA,TRUCKEE RS,,15,-8,19480701-20211225, 87.1%,19850329-20211225, 82.1%,20030812-20211225, 78.9%
USC00049053,41.9600,-121.4745,1230.8,CA,TULELAKE,,15,-8,19480701-20211105, 92.5%,19850304-20211105, 91.0%,20030705-20211105, 91.0%
USC00049273,38.6086,-123.0180,384.0,CA,VENADO,,15,-8,19480701-20211231, 83.8%,19850401-20211231, 74.3%,20030816-20211231, 79.6%
USC00049390,40.4583,-121.8663,676.7,CA,VOLTA PH,,15,-8,19480701-20211231, 95.8%,19850401-20211231, 94.0%,20030816-20211231, 94.7%
USC00049490,40.7367,-122.9404,627.3,CA,WEAVERVILLE,,15,-8,19480701-20211231, 87.8%,19850401-20211231, 82.9%,20030816-20211231, 85.2%
USC00049605,39.0277,-121.3908,32.0,CA,WHEATLAND 2 NE,,15,-8,19480701-20211231, 94.8%,19850401-20211231, 92.8%,20030816-20211231, 94.4%
USC00049684,39.4194,-123.3425,412.4,CA,WILLITS 1 NE,,15,-8,19891002-20121013, 79.1%,20010408-20121013, 75.1%,20070110-20121013, 84.1%
USC00049855,37.7503,-119.5897,1224.7,CA,YOSEMITE PARK HEADQUARTERS,,15,-8,19480701-20210805, 87.1%,19850117-20210805, 80.3%,20030427-20210805, 78.7%
USC00050109,40.1551,-103.1418,1384.4,CO,AKRON 4 E,,15,-7,19480801-20211231, 95.3%,19850416-20211231, 92.0%,20030824-20211231, 92.6%
USC00050263,38.9931,-105.8915,2724.6,CO,ANTERO RESERVOIR,,15,-7,19680513-20211231, 89.6%,19950308-20211231, 87.3%,20080803-20211231, 91.1%
USC00050304,38.8528,-102.1764,1225.3,CO,ARAPAHOE,,15,-7,19480801-20211231, 95.9%,19850416-20211231, 93.5%,20030824-20211231, 90.3%
USC00050372,39.1852,-106.8380,2491.7,CO,ASPEN 1SW,,15,-7,19800625-20211231, 92.5%,20010329-20211231, 93.3%,20110815-20211231, 99.2%
USC00050834,39.6567,-102.1193,1132.9,CO,BONNY DAM 2NE,,15,-7,19510601-20211231, 59.6%,19860915-20211231, 78.1%,20040508-20211231, 75.8%
USC00050843,40.0340,-105.2813,1654.1,CO,BOULDER 2,,15,-7,19480801-20211231, 95.4%,19850416-20211231, 93.9%,20030824-20211231, 95.9%
USC00051179,39.7406,-104.1274,1554.8,CO,BYERS 5 ENE,,15,-7,19480801-20211231, 95.1%,19850416-20211231, 93.4%,20030824-20211231, 91.4%
USC00051401,39.4105,-104.9058,1885.2,CO,CASTLE ROCK,,15,-7,19480801-20211231, 83.9%,19850416-20211231, 83.0%,20030824-20211231, 91.3%
USC00051441,38.9010,-107.9021,2038.8,CO,CEDAREDGE 1E,,15,-7,20200502-20211231,100.0%,20210302-20211231, 99.7%,20210801-20211231, 99.3%
USC00051443,38.9044,-107.8913,2084.2,CO,CEDAREDGE 3E,,15,-7,19970203-20200601, 80.8%,20081002-20200601, 91.9%,20140802-20200601, 99.9%
USC00051539,38.1150,-103.5100,1264.0,CO,CHERAW 1 N,,15,-7,19480806-20211231, 91.8%,19850419-20211231, 93.6%,20030825-20211231, 93.4%
USC00051713,38.4431,-106.7616,2440.2,CO,COCHETOPA CREEK,,15,-7,19480801-20211231, 94.6%,19850416-20211231, 91.4%,20030824-20211231, 99.0%
USC00051929,40.4356,-107.5134,2099.8,CO,CRAIG TRAPPER MINE,,15,-7,20140905-20211231, 99.4%,20180504-20211231, 98.8%,20200302-20211231, 99.9%
USW00023062,39.7675,-104.8695,1610.6,CO,DENVER-CENTRAL PARK,72469,15,-7,19480801-20211231, 94.7%,19850416-20211231, 89.5%,20030824-20211231, 86.6%
USC00052286,40.2441,-108.9726,1816.6,CO,DINOSAUR NATL MONUMENT,,15,-7,19650601-20211231, 88.1%,19930915-20211231, 81.8%,20071108-20211231, 95.7%
USC00052535,40.1097,-102.4906,1204.9,CO,ECKLEY,,15,-7,19480801-20121212, 89.3%,19801006-20121212, 80.2%,19961108-20121212, 73.4%
USC00052965,38.9127,-105.2849,2560.9,CO,FLORISSANT FOSSIL BED,,15,-7,19741001-20211231, 83.9%,19980517-20211231, 89.2%,20100309-20211231, 95.8%
USC00053005,40.5763,-105.0857,1525.2,CO,FORT COLLINS,,15,-7,19480801-20211231, 94.7%,19850416-20211231, 93.8%,20030824-20211231, 95.4%
USC00053477,38.0614,-102.3153,1063.4,CO,GRANADA,,15,-7,19480801-20211231, 95.1%,19850416-20211231, 93.9%,20030824-20211231, 93.5%
USC00053500,40.1849,-105.8666,2526.2,CO,GRAND LAKE 6 SSW,,15,-7,19480801-20211231, 90.9%,19850416-20211231, 88.3%,20030824-20211231, 93.5%
USC00053553,40.4022,-104.6991,1437.1,CO,GREELEY UNC,,15,-7,19850711-20211231, 88.2%,20031006-20211231, 89.9%,20121117-20211231, 96.1%
USC00053579,39.1044,-104.7286,2291.5,CO,GREENLAND 9 SE,,15,-7,19480801-20211231, 94.9%,19850416-20211231, 91.8%,20030824-20211231, 89.5%
USC00053584,39.2166,-104.7383,2103.1,CO,GREENLAND 6 NE,,15,-7,19480801-20211231, 94.1%,19850416-20211231, 91.8%,20030824-20211231, 95.4%
USC00053662,38.5254,-106.9672,2323.2,CO,GUNNISON 3SW,,15,-7,19480801-20211231, 90.6%,19850416-20211231, 86.7%,20030824-20211231, 94.6%
USC00054082,40.5454,-102.3412,1152.1,CO,HOLYOKE,,15,-7,19780701-20211231, 74.9%,20000331-20211231, 88.4%,20110214-20211231, 92.7%
USC00054155,39.9839,-104.0838,1474.6,CO,HOYT,,15,-7,19480801-20211231, 87.1%,19850416-20211231, 83.0%,20030824-20211231, 85.6%
USC00054172,39.1438,-103.4897,1531.6,CO,HUGO 1 NW,,15,-7,19480801-20191008, 92.9%,19840305-20191008, 89.3%,20011221-20191008, 91.6%
USC00054380,39.6552,-102.6804,1303.0,CO,JOES,,15,-7,19480801-20211231, 85.3%,19850416-20211231, 83.1%,20030824-20211231, 82.1%
USC00054388,38.0634,-102.9298,1162.5,CO,JOHN MARTIN DAM,,15,-7,19480801-20211231, 84.8%,19850416-20211231, 83.2%,20030824-20211231, 96.6%
USC00054538,37.4536,-103.3220,1581.9,CO,KIM 15 NNE,,15,-7,19480801-20211231, 94.6%,19850416-20211231, 95.3%,20030824-20211231, 96.9%
USC00054742,38.9075,-105.4705,2606.0,CO,LAKE GEORGE 8 SW,,15,-7,19480801-20211214, 91.4%,19850408-20211214, 85.2%,20030811-20211214, 89.4%
USC00054877,39.7661,-105.6264,2468.9,CO,LAWSON,,15,-7,19750206-20130902, 87.9%,19940521-20130902, 89.1%,20040111-20130902, 82.9%
USC00055121,40.2466,-105.1463,1569.7,CO,LONGMONT 6 NW,,15,-7,19480801-20211231, 91.0%,19850416-20211231, 84.9%,20030824-20211231, 90.6%
USC00055322,37.1712,-105.9401,2345.4,CO,MANASSA,,15,-7,20210603-20211231, 91.0%,20210916-20211231, 82.2%,20211108-20211231, 98.1%
USC00055352,38.8557,-104.9330,2029.4,CO,MANITOU SPRINGS,,15,-7,19480801-20211231, 88.3%,19850416-20211231, 82.5%,20030824-20211231, 89.1%
USC00055484,40.0358,-107.9058,1898.6,CO,MEEKER,,15,-7,19480801-20211231, 63.9%,19850416-20211231, 71.0%,20030824-20211231, 94.5%
USC00055706,37.5811,-106.1866,2345.4,CO,MONTE VISTA 2W,,15,-7,19480801-20211231, 47.9%,19850416-20211231, 50.5%,20030824-20211231, 96.3%
USC00055765,39.6527,-105.2030,1780.0,CO,MORRISON 1 SW,,15,-7,19580101-20211231, 94.1%,19891231-20211231, 93.0%,20051231-20211231, 95.4%
USC00055881,40.0361,-105.5461,3051.0,CO,NEDERLAND 5 NNW,,15,-7,19961004-20211231, 81.5%,20090518-20211231, 86.8%,20150909-20211231, 97.3%
USC00055934,40.9319,-103.8678,1578.9,CO,NEW RAYMER 21 N,,15,-7,20050201-20211026, 90.3%,20130614-20211026, 97.6%,20170820-20211026, 95.4%
USC00055970,37.8123,-109.0132,2036.4,CO,NORTHDALE,,15,-7,20180427-20211231, 99.9%,20200228-20211231, 99.9%,20210129-20211231, 99.7%
USC00055982,40.9366,-106.3391,2386.6,CO,NORTHGATE,,15,-7,19790301-20211007, 75.6%,20000618-20211007, 74.7%,20110211-20211007, 67.5%
USC00056023,40.7063,-104.7833,1583.7,CO,NUNN,,15,-7,19480801-20211231, 92.3%,19850416-20211231, 91.9%,20030824-20211231, 92.0%
USC00056132,38.4368,-103.7224,1388.4,CO,ORDWAY 15N,,15,-7,20161125-20211231, 99.9%,20190614-20211231, 99.8%,20200921-20211231, 99.6%
USC00056136,38.5301,-103.7059,1453.0,CO,ORDWAY 21 N,,15,-7,19800601-20150701, 89.2%,19971215-20150701, 90.0%,20060922-20150701, 94.6%
USC00056205,38.0263,-107.6725,2352.4,CO,OURAY NO. 2,,15,-7,20060903-20211231, 95.3%,20140503-20211231, 99.2%,20180302-20211231, 98.5%
USC00056595,37.5492,-108.8304,2103.4,CO,PLEASANT VIEW 5SW,,15,-7,20100101-20130602, 99.9%,20110917-20130602, 99.8%,20120725-20130602, 99.5%
USC00057033,39.5572,-107.7261,1667.0,CO,RIFLE 3ENE,,15,-7,20090902-20211231, 98.7%,20151101-20211231, 99.6%,20181201-20211231, 99.3%
USC00057320,37.9258,-104.9298,2068.4,CO,RYE SCHOOL,,15,-7,20191107-20211231,100.0%,20201203-20211231, 99.7%,20210617-20211231, 99.5%
USC00057337,38.0921,-106.1512,2359.5,CO,SAGUACHE,,15,-7,20200630-20211231, 96.4%,20210331-20211231, 99.6%,20210815-20211231, 99.3%
USC00057436,37.1941,-105.4325,2418.9,CO,SAN LUIS 1S,,15,-7,20090601-20211231, 87.7%,20150916-20211231, 99.9%,20181108-20211231, 99.8%
USC00057519,39.2951,-102.8677,1434.4,CO,SEIBERT,,15,-7,19550505-20211231, 90.0%,19880901-20211231, 84.0%,20050502-20211231, 83.9%
USC00057560,39.5719,-103.2922,1524.0,CO,SHAW 4ENE,,15,-7,19970101-20211109, 86.8%,20090606-20211109, 83.2%,20150823-20211109, 71.6%
USC00057572,37.7150,-105.2352,2360.4,CO,SHEEP MOUNTAIN,,15,-7,19880104-20190812, 90.4%,20031023-20190812, 92.4%,20110917-20190812, 93.7%
USC00057664,39.1398,-104.0879,1823.9,CO,SIMLA,,15,-7,19480801-20211231, 89.8%,19850416-20211231, 87.3%,20030824-20211231, 87.3%
USC00058064,39.2495,-106.3713,2968.1,CO,SUGARLOAF RESERVOIR,,15,-7,19501026-20211231, 88.8%,19860529-20211231, 90.2%,20040315-20211231, 92.7%
USC00058220,37.0727,-105.0530,2512.8,CO,TERCIO 4 NW,,15,-7,19480812-20211231, 90.1%,19850422-20211231, 84.8%,20030827-20211231, 83.8%
USC00058429,37.1787,-104.4870,1837.9,CO,TRINIDAD,,15,-7,19730501-20211231, 92.2%,19970831-20211231, 92.7%,20091031-20211231, 95.5%
USC00058436,37.1502,-104.5568,1923.3,CO,TRINIDAD LAKE,,15,-7,19890401-20211231, 93.2%,20050816-20211231, 95.8%,20131023-20211231, 98.6%
USC00058781,37.6303,-104.7957,1917.8,CO,WALSENBURG 1 NW,,15,-7,19480801-20211231, 92.1%,19850416-20211231, 91.0%,20030824-20211231, 91.6%
USC00058997,37.8673,-104.1138,1437.1,CO,WHITE ROCK,,15,-7,19480801-20211231, 93.0%,19850416-20211231, 91.6%,20030824-20211231, 93.3%
USC00059096,40.0375,-106.2038,2322.0,CO,WILLIAMS FORK DAM,,15,-7,19820601-20211231, 86.7%,20020317-20211231, 82.2%,20120207-20211231, 85.1%
USC00059210,39.1005,-105.0942,2365.2,CO,WOODLAND PARK 8 NNW,,15,-7,20191016-20211231,100.0%,20201122-20211231, 99.8%,20210612-20211231, 99.5%
USC00059285,38.8590,-104.2426,1909.9,CO,YODER 2 NW,,15,-7,19760908-20211231, 84.6%,19990506-20211231, 92.0%,20100902-20211231, 96.0%
USC00065445,41.9725,-73.2208,408.4,CT,NORFOLK 2 SW,,15,-5,19480501-20211231, 79.7%,19850301-20211231, 62.0%,20030801-20211231, 39.5%
USC00068330,41.6931,-73.0600,164.0,CT,THOMASTON DAM,,15,-5,19610914-20211231, 76.5%,19911107-20211231, 62.6%,20061204-20211231, 49.0%
USC00075320,38.7841,-75.1581,3.0,DE,LEWES,,15,-5,20200104-20200304,100.0%,20200203-20200304, 96.8%,20200218-20200304, 93.8%
USC00076410,39.6682,-75.7457,32.3,DE,NEWARK AG FARM,,15,-5,19560801-20190903, 72.2%,19880216-20190903, 56.6%,20031125-20190903, 67.6%
USC00080845,26.3676,-80.1107,9.1,FL,BOCA RATON,,15,-5,19420101-20210804, 83.9%,19811018-20210804, 82.7%,20010910-20210804, 75.3%
USC00080975,29.9625,-82.9108,9.1,FL,BRANFORD,,15,-5,19440821-20160307, 53.1%,19800529-20160307, 70.2%,19980418-20160307, 93.7%
USC00081048,28.4811,-82.4353,20.4,FL,BROOKSVILLE 7 SSW,,15,-5,19720128-20211231, 97.6%,19970113-20211231, 97.7%,20090708-20211231, 98.2%
USC00082008,29.6333,-83.1053,12.8,FL,CROSS CITY 1 E,,15,-5,19660627-20211231, 87.1%,19940330-20211231, 85.7%,20080214-20211231, 89.4%
USC00082229,29.0667,-81.2833,8.8,FL,DELAND 3 NE,,15,-5,19860221-20211231, 87.2%,20040126-20211231, 93.3%,20130112-20211231, 92.2%
USC00082391,30.2497,-83.2594,16.5,FL,DOWLING PARK 1 W,,15,-5,19440804-20181106, 81.1%,19810920-20181106, 78.6%,20000413-20181106, 70.0%
USC00083538,30.9575,-85.5330,48.8,FL,GRACEVILLE 1 SW,,15,-6,19420101-20200710, 78.9%,19810406-20200710, 67.1%,20001122-20200710, 56.3%
USC00084095,25.5011,-80.5500,2.7,FL,HOMESTEAD GEN AVIATION AP,,15,-5,19950701-20211231, 83.8%,20080930-20211231, 91.1%,20150517-20211231, 97.5%
USC00084273,29.0248,-82.6157,9.1,FL,INGLIS 3 E,,15,-5,19420101-20211231, 93.7%,19811231-20211231, 90.9%,20011231-20211231, 88.1%
USC00084802,27.9922,-82.0138,42.4,FL,LAKELAND 2,,15,-5,20011101-20211231, 84.8%,20111201-20211231, 98.1%,20161215-20211231, 96.2%
USC00085076,28.8728,-81.7844,20.7,FL,LISBON,,15,-5,19581209-20211231, 94.2%,19900620-20211231, 91.7%,20060326-20211231, 93.7%
USC00085237,29.2003,-81.9306,25.9,FL,LYNNE,,15,-5,19420101-20160419, 89.4%,19790224-20160419, 86.4%,19970921-20160419, 86.7%
USC00085391,29.6700,-81.2150,1.5,FL,MARINELAND,,15,-5,19420101-20160601, 92.9%,19790318-20160601, 91.2%,19971024-20160601, 90.1%
USC00085612,28.1136,-80.6540,10.7,FL,MELBOURNE WFO,,15,-5,19420101-20211231, 94.9%,19811231-20211231, 94.6%,20011231-20211231, 96.9%
USC00085880,30.4405,-83.9858,66.8,FL,MONTICELLO 10 SW,,15,-5,20070801-20211231, 90.7%,20141016-20211231, 90.4%,20180524-20211231, 95.2%
USC00085895,26.8400,-81.0872,10.7,FL,MOORE HAVEN LOCK 1,,15,-5,19420101-20200722, 86.9%,19810412-20200722, 74.1%,20001201-20200722, 84.5%
USC00086240,30.5316,-86.4928,18.3,FL,NICEVILLE,,15,-6,19500701-20211231, 89.0%,19860401-20211231, 83.3%,20040215-20211231, 91.1%
USC00086323,26.3354,-80.5373,4.9,FL,NORTH NEW RVR CANAL 2,,15,-5,19420101-20211201, 71.7%,19811216-20211201, 46.6%,20011208-20211201, 60.3%
USC00086842,30.2491,-85.6605,1.5,FL,PANAMA CITY 5N,,15,-6,19711201-20211231, 87.5%,19961215-20211231, 81.6%,20090623-20211231, 83.5%
USC00086880,27.6090,-82.3476,18.3,FL,PARRISH,,15,-5,19440818-20210709, 89.9%,19830128-20210709, 86.0%,20020419-20210709, 78.3%
USC00087440,30.0678,-82.1928,36.6,FL,RAIFORD STATE PRISON,,15,-5,19490319-20161212, 85.6%,19830130-20161212, 78.3%,20000106-20161212, 75.1%
USC00087851,28.3378,-82.2600,57.9,FL,SAINT LEO,,15,-5,19440817-20211231, 96.5%,19830425-20211231, 94.7%,20020828-20211231, 94.6%
USC00087886,27.7833,-82.6333,10.7,FL,ST PETERSBURG,,15,-5,19460201-20150102, 91.1%,19800718-20150102, 85.2%,19971010-20150102, 79.6%
USC00088780,25.7608,-80.8241,4.6,FL,TAMIAMI TRAIL 40 MI. BEND,,15,-5,19420101-20211123, 83.9%,19811212-20211123, 80.5%,20011202-20211123, 79.2%
USC00088782,27.7053,-82.4009,12.2,FL,TAMPA BAY AREA WFO,72210,15,-5,20000101-20211231, 30.7%,20101231-20211231, 61.3%,20160701-20211231, 96.8%
USC00088841,25.0069,-80.5211,1.5,FL,TAVERNIER,,15,-5,19980701-20211231, 81.1%,20100401-20211231, 95.7%,20160215-20211231, 98.5%
USC00089010,25.7647,-80.4775,4.0,FL,TRAIL GLADE RANGES,,15,-5,19661215-20210526, 75.2%,19940306-20210526, 81.7%,20071015-20210526, 86.4%
USC00089176,27.1006,-82.4364,2.4,FL,VENICE,,15,-5,19420101-20211231, 88.9%,19811231-20211231, 87.9%,20011231-20211231, 89.7%
USC00089184,27.1819,-81.3509,42.7,FL,VENUS,,15,-5,19420101-20211231, 90.2%,19811231-20211231, 84.2%,20011231-20211231, 84.5%
USC00089219,27.6527,-80.4030,6.1,FL,VERO BEACH 4SE,,15,-5,19650501-20211231, 87.3%,19930831-20211231, 78.8%,20071031-20211231, 75.5%
USC00089415,30.6323,-85.5976,45.7,FL,WAUSAU,,15,-6,19650801-20201007, 77.8%,19930305-20201007, 81.8%,20061221-20201007, 87.2%
USC00089795,30.7219,-84.8741,32.6,FL,WOODRUFF DAM,,15,-5,19560401-20210709, 83.4%,19881119-20210709, 74.5%,20050315-20210709, 62.1%
USC00090044,34.3407,-84.8347,291.4,GA,ADAIRSVILLE 5 SE,,15,-5,19860918-20211231, 90.6%,20040510-20211231, 94.5%,20130306-20211231, 93.2%
USC00091619,34.3656,-83.2328,204.2,GA,CARNESVILLE,,15,-5,19480601-20211231, 86.7%,19850317-20211231, 86.4%,20030809-20211231, 93.6%
USC00092361,31.8453,-83.9409,74.7,GA,CRISP CO POWER DAM,,15,-5,20020601-20211231, 87.4%,20120316-20211231, 98.9%,20170206-20211231, 99.7%
USC00092485,33.9982,-84.7510,313.3,GA,DALLAS 7 NE,,15,-5,19480601-20211231, 93.9%,19850317-20211231, 93.7%,20030809-20211231, 90.7%
USC00092593,30.9772,-84.6367,57.9,GA,DECATUR COUNTY FIRE AND RESCUE,,15,-5,20100803-20190603, 84.6%,20150102-20190603, 72.9%,20170318-20190603, 64.1%
USC00092844,32.5574,-82.8999,61.0,GA,DUBLIN 2,,15,-5,19480601-20211231, 89.7%,19850317-20211231, 87.5%,20030809-20211231, 89.1%
USC00093028,31.5663,-84.7338,89.6,GA,EDISON,,15,-5,19480601-20200908, 91.1%,19840720-20200908, 86.7%,20020814-20200908, 81.8%
USC00093312,30.6908,-82.5633,35.1,GA,FARGO,,15,-5,19480601-20160406, 87.4%,19820504-20160406, 83.3%,19990420-20160406, 85.3%
USC00093460,30.7997,-82.0313,9.1,GA,FOLKSTON 3 SW,,15,-5,19480701-20161202, 90.7%,19820916-20161202, 85.1%,19991025-20161202, 89.9%
USC00094204,31.8878,-82.5808,76.2,GA,HAZLEHURST,,15,-5,19480601-20160303, 93.2%,19820417-20160303, 90.9%,19990326-20160303, 91.3%
USC00094623,33.3200,-83.8436,131.1,GA,JACKSON DAM,,15,-5,19480601-20211231, 84.0%,19850317-20211231, 77.6%,20030809-20211231, 92.5%
USC00094671,31.6081,-81.8797,30.5,GA,JESUP,,15,-5,19480601-20191008, 89.2%,19840203-20191008, 86.6%,20011205-20191008, 83.4%
USC00094941,34.8530,-85.3142,243.5,GA,CHICKAMAUGA 2 SW,,15,-5,19480601-20211231, 79.8%,19850317-20211231, 79.2%,20030809-20211231, 73.5%
USC00095165,33.8705,-83.1135,221.3,GA,LEXINGTON,,15,-5,19520115-20180601, 84.3%,19850324-20180601, 75.8%,20011027-20180601, 87.0%
USC00095314,33.0125,-82.3914,98.1,GA,LOUISVILLE 1 E,,15,-5,19480601-20211231, 92.1%,19850317-20211231, 89.5%,20030809-20211231, 91.6%
USC00096879,31.2928,-82.8422,62.5,GA,PEARSON,,15,-5,19480601-20161222, 93.5%,19820911-20161222, 91.2%,19991101-20161222, 88.5%
USC00097605,34.1650,-85.2583,213.4,GA,ROME 8 SW,,15,-5,19480601-20211231, 88.9%,19850317-20211231, 83.6%,20030809-20211231, 76.0%
USC00098657,32.9642,-84.2303,250.2,GA,THE ROCK RANCH,,15,-5,19480601-20210106, 92.9%,19840918-20210106, 90.7%,20021112-20210106, 84.1%
USC00098974,30.8055,-83.2736,80.8,GA,VALDOSTA 2 S,,15,-5,19541001-20170601, 87.7%,19860130-20170601, 79.5%,20010930-20170601, 66.7%
USC00099291,32.8861,-85.1838,175.3,GA,WEST POINT,,15,-5,19830203-20211231, 84.8%,20020718-20211231, 82.6%,20120409-20211231, 84.1%
USC00099486,33.9664,-83.2911,271.3,GA,WINTERVILLE,,15,-5,19970801-20211231, 84.9%,20091016-20211231, 87.4%,20151123-20211231, 99.1%
USC00101018,43.5253,-116.0542,865.6,ID,BOISE LUCKY PEAK DAM,,15,-7,19510101-20210506, 88.1%,19860304-20210506, 86.0%,20031004-20210506, 81.6%
USC00101079,48.6928,-116.3104,609.9,ID,BONNERS FERRY,,15,-8,19480701-20211231, 82.7%,19850401-20211231, 70.7%,20030816-20211231, 48.0%
USC00101956,47.6821,-116.7967,650.1,ID,COEUR D'ALENE,,15,-8,19480701-20211231, 72.5%,19850401-20211231, 60.3%,20030816-20211231, 78.0%
USC00102159,46.0336,-116.3919,1202.4,ID,COTTONWOOD 2 WSW,,15,-8,19480801-20211231, 82.1%,19850416-20211231, 73.0%,20030824-20211231, 73.0%
USC00102575,45.5525,-115.4605,1713.0,ID,DIXIE,,15,-8,19780801-20211231, 72.1%,20000416-20211231, 66.5%,20110222-20211231, 48.9%
USC00102707,44.2436,-112.2003,1661.2,ID,DUBOIS EXPERIMENT STATION,,15,-7,19480701-20211231, 83.3%,19850401-20211231, 89.4%,20030816-20211231, 81.8%
USC00102845,46.5023,-116.3216,303.3,ID,DWORSHAK FISH HATCHERY,,15,-8,19661101-20211014, 85.5%,19940423-20211014, 78.3%,20080118-20211014, 63.1%
USC00102875,45.8356,-115.4610,1236.9,ID,ELK CITY 1NE,,15,-8,19790702-20151020, 82.4%,19970825-20151020, 78.2%,20060922-20151020, 62.1%
USC00103143,46.0930,-115.5355,475.5,ID,FENN RANGER STATION,,15,-8,19520424-20211231, 85.8%,19870226-20211231, 80.6%,20040729-20211231, 69.7%
USC00103677,42.9183,-114.7664,1110.4,ID,GOODING 1 S,,15,-7,19520901-20210506, 89.9%,19870103-20210506, 84.1%,20040305-20210506, 81.4%
USC00103732,42.5872,-111.7275,1691.6,ID,GRACE,,15,-7,19521123-20211231, 87.5%,19870613-20211231, 86.9%,20040921-20211231, 89.2%
USC00103773,45.9397,-116.1211,1008.9,ID,GRANGEVILLE 1N,,15,-8,20000210-20211231, 77.3%,20110120-20211231, 66.2%,20160711-20211231, 66.4%
USC00103811,42.3450,-115.8836,1566.7,ID,GRASMERE 3 S,,15,-7,19630403-20200224, 88.7%,19910913-20200224, 88.2%,20051203-20200224, 83.2%
USC00104230,42.9419,-111.4361,2025.1,ID,HENRY,,15,-7,19710923-20121031, 83.1%,19920412-20121031, 81.1%,20020722-20121031, 71.1%
USC00104456,43.3455,-111.7847,1776.4,ID,IDAHO FALLS 16 SE,,15,-7,19600412-20211231, 81.7%,19910220-20211231, 72.6%,20060727-20211231, 53.9%
USC00104598,44.4203,-111.3710,1917.2,ID,ISLAND PARK,,15,-7,20001116-20211231, 71.9%,20110609-20211231, 85.4%,20160919-20211231, 91.4%
USC00104845,43.6841,-114.3602,1795.3,ID,KETCHUM RANGER STATION,,15,-7,19730301-20211231, 76.6%,19970731-20211231, 69.5%,20091015-20211231, 69.0%
USC00105177,44.6830,-113.3622,1828.8,ID,LEADORE NO. 2,,15,-7,20090801-20211231, 76.6%,20151016-20211231, 74.0%,20181123-20211231, 99.5%
USC00105462,43.9178,-113.6152,1797.4,ID,MACKAY LOST RIVER RS,,15,-7,19480701-20211231, 86.5%,19850401-20211231, 82.2%,20030816-20211231, 78.3%
USC00105567,42.3061,-113.3688,1378.0,ID,MALTA,,15,-7,19521125-20160119, 74.5%,19840622-20160119, 58.0%,20000405-20160119, 37.8%
USC00105708,44.8871,-116.1046,1531.6,ID,MCCALL,,15,-7,19710101-20200204, 83.2%,19950719-20200204, 78.0%,20071027-20200204, 83.5%
USC00106174,43.1261,-115.7119,957.1,ID,MOUNTAIN HOME,,15,-7,19480701-20170405, 86.2%,19821117-20170405, 88.8%,20000126-20170405, 89.5%
USC00106230,47.4661,-115.8113,975.7,ID,MULLAN,,15,-8,19720601-20211231, 89.7%,19970317-20211231, 90.3%,20090808-20211231, 99.4%
USC00106250,42.0264,-115.3596,1570.3,ID,MURPHY (DESERT) HOT SPRINGS,,15,-7,19871209-20210502, 67.2%,20040820-20210502, 85.0%,20121225-20210502, 84.7%
USC00106586,44.1758,-116.2827,937.3,ID,OLA,,15,-7,19480701-20190601, 39.2%,19831216-20190601, 70.8%,20010907-20190601, 87.4%
USC00107269,48.9938,-116.5024,548.3,ID,PORTHILL 1 SW,,15,-8,19710101-20211231, 83.9%,19960701-20211231, 77.6%,20090401-20211231, 81.1%
USC00107327,43.5063,-115.5716,1456.9,ID,PRAIRIE,,15,-7,19600201-20210506, 85.3%,19900918-20210506, 75.3%,20060111-20210506, 67.6%
USC00107968,42.6028,-113.7242,1265.5,ID,RUPERT 3 WSW,,15,-7,20210729-20211231,100.0%,20211014-20211231, 98.7%,20211122-20211231, 97.5%
USC00108137,48.2943,-116.5627,648.0,ID,SANDPOINT EXP STATION,,15,-8,19600101-20211231, 88.7%,19901231-20211231, 85.6%,20060701-20211231, 85.4%
USC00108412,43.0022,-116.8316,1877.6,ID,SILVER CITY 5 W,,15,-7,19821201-20210505, 66.6%,20020216-20210505, 61.9%,20110926-20210505, 47.3%
USC00108470,42.4963,-113.4161,1373.1,ID,SKAGGS RANCH,,15,-7,20110418-20110731, 98.0%,20110609-20110731, 97.8%,20110705-20110731, 96.3%
USC00109065,43.8563,-111.2769,1880.6,ID,TETONIA EXPERIMENT STN,,15,-7,19520517-20211231, 80.9%,19870310-20211231, 72.1%,20040804-20211231, 58.8%
USC00109158,42.6251,-112.0879,1499.0,ID,TOPAZ,,15,-7,19780510-20180512, 75.3%,19980511-20180512, 72.3%,20080511-20180512, 57.0%
USC00109951,44.8541,-115.5115,1554.5,ID,YELLOWPINE 7 S,,15,-7,19700805-20171019, 75.2%,19940313-20171019, 67.7%,20051230-20171019, 41.3%
USC00109963,45.5450,-115.2514,755.9,ID,YELLOWPINE BAR,,15,-8,19870101-20130501, 91.0%,20000301-20130501, 86.8%,20060930-20130501, 79.9%
USC00110082,41.0579,-90.5654,207.3,IL,ALEXIS 1 SW,,15,-6,19480701-20211231, 93.2%,19850401-20211231, 94.1%,20030816-20211231, 95.8%
USC00110281,38.3125,-89.2724,161.5,IL,ASHLEY,,15,-6,19651118-20211231, 87.3%,19931209-20211231, 87.2%,20071220-20211231, 89.1%
USC00110330,40.2333,-90.9471,207.3,IL,AUGUSTA,,15,-6,19480701-20211231, 88.0%,19850401-20211231, 84.4%,20030816-20211231, 87.3%
USW00013802,38.5500,-89.8500,135.0,IL,BELLEVILLE SCOTT AAF,,15,-6,19480701-20211231, 92.2%,19850401-20211231, 90.2%,20030816-20211231, 91.8%
USC00110583,42.2550,-88.8640,229.5,IL,BELVIDERE,,15,-6,19480701-20211231, 89.4%,19850401-20211231, 87.1%,20030816-20211231, 87.1%
USW00093809,37.0401,-89.1842,98.1,IL,CAIRO 3N,,15,-6,19480701-20211231, 90.7%,19850401-20211231, 81.4%,20030816-20211231, 88.2%
USC00111250,40.5379,-90.0421,195.1,IL,CANTON,,15,-6,20140825-20211231, 97.9%,20180428-20211231, 99.9%,20200228-20211231, 99.9%
USC00111290,38.6249,-89.3630,152.7,IL,CARLYLE RESERVOIR,,15,-6,19700701-20211231, 77.7%,19960331-20211231, 80.9%,20090214-20211231, 89.7%
USC00111302,38.0733,-88.1805,102.1,IL,CARMI 3,,15,-6,19880301-20211229, 94.8%,20050129-20211229, 95.2%,20130715-20211229, 98.7%
USC00111329,39.2975,-87.9746,189.0,IL,CASEY,,15,-6,20140726-20211231, 99.7%,20180413-20211231, 99.7%,20200221-20211231, 99.9%
USC00111577,41.7372,-87.7775,189.0,IL,CHICAGO MIDWAY AP 3SW,,15,-6,19480701-20211231, 95.7%,19850401-20211231, 94.0%,20030816-20211231, 95.4%
USC00111664,38.5047,-88.4094,138.4,IL,CISNE 2 S,,15,-6,19460701-20211231, 85.0%,19840331-20211231, 87.2%,20030214-20211231, 94.3%
USC00111743,40.1375,-88.9675,210.3,IL,CLINTON 1SSW,,15,-6,20030602-20211231, 91.9%,20120915-20211231, 99.9%,20170509-20211231, 99.9%
USC00112011,41.4492,-87.6221,216.4,IL,CRETE,,15,-6,19480701-20211231, 87.9%,19850401-20211231, 90.7%,20030816-20211231, 90.1%
USC00112140,40.1391,-87.6479,169.2,IL,DANVILLE,,15,-6,19510502-20211231, 95.6%,19860831-20211231, 93.6%,20040501-20211231, 94.7%
USC00112193,39.8288,-88.9505,194.8,IL,DECATUR WTP,,15,-6,19831101-20211231, 92.8%,20021201-20211231, 95.7%,20120616-20211231, 99.9%
USC00112353,37.4388,-88.6678,160.6,IL,DIXON SPRINGS AGRIC CNTR,,15,-6,19670921-20211231, 90.7%,19941110-20211231, 85.2%,20080605-20211231, 92.4%
USC00112685,39.1065,-88.5312,161.8,IL,EFFINGHAM SE,,15,-6,20200813-20211231, 99.8%,20210422-20211231, 99.6%,20210826-20211231, 99.2%
USC00112687,39.1181,-88.6244,190.5,IL,EFFINGHAM 3SW,,15,-6,19480701-20200625, 86.3%,19840628-20200625, 78.0%,20020627-20200625, 91.9%
USC00112923,40.7511,-88.4983,202.7,IL,FAIRBURY WWTP,,15,-6,19480701-20211231, 92.4%,19850401-20211231, 86.9%,20030816-20211231, 89.2%
USC00113106,38.6780,-88.4798,146.6,IL,FLORA,,15,-6,20030501-20210402, 69.4%,20120416-20210402, 55.6%,20161008-20210402, 85.0%
USC00113107,38.6609,-88.4784,149.0,IL,FLORA 2,,15,-6,20210429-20211231, 94.7%,20210830-20211231, 88.7%,20211030-20211231, 98.4%
USC00113262,42.2972,-89.6038,228.6,IL,FREEPORT WASTE WTR PL,,15,-6,19480701-20211231, 92.7%,19850401-20211231, 87.4%,20030816-20211231, 93.4%
USC00113290,41.8978,-90.1545,180.4,IL,FULTON L&D # 13,,15,-6,19480701-20211231, 69.4%,19850401-20211231, 47.5%,20030816-20211231, 68.4%
USC00113666,39.3424,-90.2060,164.6,IL,GREENFIELD,,15,-6,19480701-20211231, 91.6%,19850401-20211231, 92.3%,20030816-20211231, 89.4%
USC00113879,37.7408,-88.5244,111.3,IL,HARRISBURG,,15,-6,19880601-20211231, 79.3%,20050317-20211231, 92.2%,20130808-20211231, 95.2%
USC00114078,39.1396,-88.1905,152.4,IL,HIDALGO 3SW,,15,-6,20051001-20140930, 89.1%,20100401-20140930, 80.4%,20120630-20140930, 99.8%
USC00114198,40.4664,-87.6851,216.4,IL,HOOPESTON,,15,-6,19480701-20211231, 97.4%,19850401-20211231, 95.6%,20030816-20211231, 93.6%
USC00114317,39.1100,-87.6657,147.2,IL,HUTSONVILLE,,15,-6,19570724-20211231, 87.9%,19891012-20211231, 83.4%,20051121-20211231, 91.7%
USC00114355,41.4255,-91.0094,167.6,IL,ILLINOIS CITY DAM 16,,15,-6,19480701-20211231, 94.3%,19850401-20211231, 93.4%,20030816-20211231, 93.8%
USC00114442,39.7346,-90.1979,185.9,IL,JACKSONVILLE 2E,,15,-6,19630407-20211231, 90.4%,19920818-20211231, 91.2%,20070425-20211231, 92.2%
USC00114603,41.1351,-87.8856,182.9,IL,KANKAKEE METRO WASTEWATER,,15,-6,19480701-20211231, 89.3%,19850401-20211231, 85.0%,20030816-20211231, 85.9%
USC00114629,37.9834,-89.9468,115.8,IL,KASKASKIA RIVER NAVIGATION LOCK,,15,-6,19740401-20211231, 84.2%,19980214-20211231, 87.5%,20100122-20211231, 94.3%
USC00114710,41.2429,-89.8997,237.7,IL,KEWANEE 1 E,,15,-6,19510501-20211231, 56.4%,19860831-20211231, 84.2%,20040501-20211231, 96.6%
USC00114805,41.0187,-89.4153,139.6,IL,LACON,,15,-6,19840221-20211231, 83.3%,20030126-20211231, 83.3%,20120714-20211231, 99.6%
USC00114879,42.0919,-89.8421,253.0,IL,LANARK,,15,-6,19480701-20211231, 90.6%,19850401-20211231, 90.7%,20030816-20211231, 92.0%
USC00114957,38.7239,-87.7196,137.5,IL,LAWRENCEVILLE 2WSW,,15,-6,19920303-20211231, 90.7%,20070131-20211231, 94.6%,20140717-20211231, 99.7%
USC00115079,40.1520,-89.3387,177.7,IL,LINCOLN,,15,-6,20120328-20211231, 99.9%,20170212-20211231, 99.8%,20190723-20211231, 99.9%
USC00115272,40.5241,-89.4207,201.8,IL,MACKINAW 3WSW,,15,-6,20011101-20180131, 92.5%,20091216-20180131, 97.9%,20140108-20180131, 99.9%
USC00115493,42.3500,-88.2667,228.9,IL,MC HENRY,,15,-6,19480701-20211231, 86.3%,19850401-20211231, 79.2%,20030816-20211231, 85.4%
USC00115768,40.9443,-90.6381,219.5,IL,MONMOUTH,,15,-6,19910804-20211231, 87.8%,20061017-20211231, 95.9%,20140525-20211231,100.0%
USC00115825,41.3708,-88.4336,159.7,IL,MORRIS 1 NW,,15,-6,19951101-20211231, 85.3%,20081130-20211231, 98.0%,20150616-20211231, 99.7%
USC00115841,39.4157,-89.4615,192.0,IL,MORRISONVILLE,,15,-6,19480701-20211231, 94.9%,19850401-20211231, 95.9%,20030816-20211231, 96.5%
USC00115876,40.6005,-89.4653,213.7,IL,MORTON,,15,-6,20190525-20211231, 99.9%,20200911-20211231, 99.8%,20210507-20211231, 99.6%
USC00115943,38.3483,-88.8533,149.4,IL,MT VERNON 3 NE,,15,-6,20210610-20211231, 85.4%,20210920-20211231, 99.0%,20211110-20211231, 98.1%
USC00115983,37.7667,-89.3167,128.0,IL,MURPHYSBORO WATERWORKS,,15,-6,19480701-20211231, 92.7%,19850401-20211231, 87.5%,20030816-20211231, 83.0%
USC00116157,38.9916,-88.1828,161.8,IL,NEWTON,,15,-6,20030801-20211231, 98.1%,20121015-20211231,100.0%,20170524-20211231, 99.9%
USC00116610,39.6185,-87.6672,197.8,IL,PARIS STP,,15,-6,19930301-20211231, 89.2%,20070801-20211231, 90.9%,20141016-20211231, 99.7%
USC00116738,39.8058,-90.8238,198.1,IL,PERRY 6 NW,,15,-6,20201021-20211231,100.0%,20210527-20211231, 99.5%,20210913-20211231, 99.1%
USC00116819,40.7569,-88.1827,204.2,IL,PIPER CITY,,15,-6,19490201-20121214, 89.6%,19810107-20121214, 83.7%,19961226-20121214, 79.5%
USC00117014,41.6752,-89.9374,184.4,IL,PROPHETSTOWN,,15,-6,19480701-20211231, 96.0%,19850401-20211231, 94.1%,20030816-20211231, 97.6%
USC00117077,39.9035,-91.4284,147.2,IL,QUINCY DAM 21,,15,-6,19480701-20190410, 88.7%,19831120-20190410, 81.5%,20010730-20190410, 79.9%
USW00014806,40.3131,-88.1596,230.1,IL,RANTOUL,,15,-6,19480701-20211231, 89.5%,19850401-20211231, 92.9%,20030816-20211231, 95.8%
USC00117187,38.0405,-88.9883,138.7,IL,REND LAKE DAM,,15,-6,19720301-20211231, 78.0%,19970130-20211231, 70.1%,20090716-20211231, 75.8%
USC00117391,41.5180,-90.5647,173.1,IL,ROCK ISLAND L&D 15,,15,-6,19850726-20211231, 91.4%,20031013-20211231, 94.5%,20121121-20211231, 99.9%
USC00117457,41.6041,-88.0850,201.2,IL,ROMEOVILLE WFO,,15,-6,20121010-20211231, 96.9%,20170521-20211231, 96.9%,20190910-20211231, 95.0%
USC00117833,41.7327,-88.8643,259.1,IL,SHABBONA 3S,,15,-6,19531201-20211231, 53.0%,19871216-20211231, 59.6%,20041223-20211231, 92.3%
USC00117876,39.4079,-88.7739,198.1,IL,SHELBYVILLE DAM,,15,-6,19700701-20211231, 82.4%,19960331-20211231, 84.1%,20090214-20211231, 83.7%
USC00118020,37.1644,-88.4311,108.8,IL,SMITHLAND LOCK & DAM,,15,-6,19801001-20211231, 86.4%,20010517-20211231, 87.5%,20110908-20211231, 96.4%
USC00118204,40.4927,-90.0470,190.5,IL,ST. DAVID,,15,-6,20120507-20141029, 99.0%,20130802-20141029, 99.3%,20140316-20141029, 98.7%
USC00118389,39.5608,-88.6090,195.1,IL,SULLIVAN 3S,,15,-6,19480701-20211231, 89.4%,19850401-20211231, 87.2%,20030816-20211231, 89.1%
USC00118740,40.0840,-88.2404,219.8,IL,CHAMPAIGN 3S,,15,-6,19590101-20211231, 95.1%,19900702-20211231, 95.2%,20060401-20211231, 96.8%
USC00118781,38.9579,-89.0952,149.4,IL,VANDALIA,,15,-6,19480701-20211231, 84.5%,19850401-20211231, 84.7%,20030816-20211231, 89.8%
USC00118916,41.5603,-89.6024,204.5,IL,WALNUT,,15,-6,20050601-20211231, 96.3%,20130915-20211231,100.0%,20171107-20211231, 99.9%
USC00119021,40.7940,-87.7546,189.0,IL,WATSEKA 2 NW,,15,-6,20130519-20211224, 97.0%,20170905-20211224, 96.9%,20191030-20211224, 99.5%
USC00119193,38.5250,-88.0130,135.6,IL,WEST SALEM,,15,-6,19710201-20211231, 77.6%,19960717-20211231, 65.0%,20090409-20211231, 44.8%
USC00119816,40.7779,-90.0073,203.9,IL,YATES CITY,,15,-6,19501201-20211231, 88.1%,19860616-20211231, 83.6%,20040324-20211231, 84.0%
USC00120132,39.5739,-85.1582,233.8,IN,ALPINE 2 NE,,15,-5,19490201-20211231, 93.8%,19850717-20211231, 88.6%,20031009-20211231, 80.6%
USC00120177,40.1117,-85.7163,256.3,IN,ANDERSON SEWAGE PLANT,,15,-5,19740716-20211231, 87.4%,19980408-20211231, 88.2%,20100218-20211231, 89.1%
USC00120200,41.6639,-85.0183,310.9,IN,ANGOLA,,15,-5,19770512-20211231, 88.8%,19990906-20211231, 85.4%,20101103-20211231, 86.2%
USC00120482,39.2967,-85.2187,295.7,IN,BATESVILLE WATER AND GAS UTILITY,,15,-5,19480701-20211231, 93.1%,19850401-20211231, 88.6%,20030816-20211231, 79.1%
USC00120830,40.8143,-85.1546,262.4,IN,BLUFFTON 6N,,15,-5,19710701-20211108, 88.8%,19960903-20211108, 88.6%,20090406-20211108, 82.0%
USC00120922,39.5108,-87.1241,207.0,IN,BRAZIL,,15,-5,19480701-20211231, 94.2%,19850401-20211231, 96.6%,20030816-20211231, 96.3%
USC00121147,40.4835,-86.3961,233.2,IN,BURLINGTON,,15,-5,19501103-20211231, 94.7%,19860602-20211231, 93.7%,20040317-20211231, 94.8%
USC00121256,37.8994,-86.7072,122.5,IN,CANNELTON,,15,-5,19711001-20211231, 82.1%,19961115-20211231, 76.3%,20090608-20211231, 83.6%
USC00121417,40.6653,-86.9550,219.5,IN,CHALMERS 5 W,,15,-5,20080801-20211231, 90.8%,20150417-20211231, 89.6%,20180824-20211231, 84.4%
USC00121739,41.1452,-85.4898,254.2,IN,COLUMBIA CITY,,15,-5,19480701-20211231, 87.9%,19850401-20211231, 79.7%,20030816-20211231, 76.0%
USC00121752,39.2106,-85.8883,193.5,IN,COLUMBUS UTILITIES,,15,-5,19480701-20211231, 82.4%,19850401-20211231, 83.6%,20030816-20211231, 76.7%
USC00121873,40.0028,-86.8011,254.8,IN,CRAWFORDSVILLE 6 SE,,15,-5,19880201-20211231, 85.7%,20050115-20211231, 86.6%,20130709-20211231, 83.3%
USC00122309,38.4558,-86.6983,210.3,IN,DUBOIS SRN IN FORAGE FARM,,15,-5,19570101-20211231, 80.2%,19890702-20211231, 78.4%,20051001-20211231, 75.8%
USC00122620,38.8701,-87.0917,146.3,IN,ELNORA,,15,-5,20120420-20211231, 97.4%,20170224-20211231, 98.0%,20190729-20211231, 96.2%
USC00122825,40.2538,-85.1484,294.1,IN,FARMLAND 5 NNW,,15,-5,19490301-20211231, 90.6%,19850731-20211231, 93.2%,20031016-20211231, 95.6%
USC00123082,40.2986,-86.5066,251.2,IN,FRANKFORT DISPOSAL,,15,-5,19800601-20211231, 82.8%,20010317-20211231, 72.6%,20110809-20211231, 59.1%
USC00123091,39.4684,-86.0412,219.5,IN,FRANKLIN WWTP,,15,-5,20010801-20211231, 92.2%,20111016-20211231, 93.7%,20161122-20211231, 96.2%
USC00123104,38.8672,-87.3083,167.6,IN,FREELANDVILLE,,15,-5,19850404-20140204, 93.9%,19990904-20140204, 92.9%,20061119-20140204, 93.4%
USC00123206,41.3415,-85.1292,268.2,IN,GARRETT,,15,-5,19601205-20211231, 91.5%,19910619-20211231, 90.9%,20060924-20211231, 87.7%
USC00123418,41.5575,-85.8825,266.7,IN,GOSHEN 3SW,,15,-5,19611101-20211231, 92.8%,19911201-20211231, 95.9%,20061216-20211231, 98.1%
USC00123714,38.1975,-86.2686,259.1,IN,HARRISON-CRAWFORD S F,,15,-5,19740806-20211231, 82.4%,19980419-20211231, 80.2%,20100223-20211231, 83.8%
USC00123777,40.4355,-85.2891,281.6,IN,HARTFORD CITY 4 ESE,,15,-5,19480701-20211231, 88.1%,19850401-20211231, 82.3%,20030816-20211231, 92.0%
USC00124181,40.8555,-85.4980,221.0,IN,HUNTINGTON,,15,-5,19480701-20211231, 88.4%,19850401-20211231, 87.2%,20030816-20211231, 84.5%
USC00124286,39.7690,-86.1850,213.7,IN,INDIANAPOLIS ZOO,,15,-5,19910501-20211231, 86.2%,20060831-20211231, 82.5%,20140501-20211231, 99.6%
USC00124730,41.6474,-85.4121,274.3,IN,LAGRANGE,,15,-5,19620602-20151202, 81.1%,19890302-20151202, 72.0%,20020717-20151202, 53.7%
USC00124782,41.5269,-86.2692,256.3,IN,LAKEVILLE,,15,-5,19480701-20211231, 93.2%,19850401-20211231, 90.8%,20030816-20211231, 89.5%
USC00124837,41.6116,-86.7297,246.6,IN,LAPORTE,,15,-6,19780401-20211231, 80.8%,20000215-20211231, 78.0%,20110123-20211231, 89.3%
USC00124908,40.0516,-86.4750,282.9,IN,LEBANON WATER WORKS,,15,-5,19480701-20211231, 94.1%,19850401-20211231, 91.6%,20030816-20211231, 88.3%
USC00124973,39.8201,-85.3242,334.4,IN,LEWISVILLE,,15,-5,19480701-20211231, 95.9%,19850401-20211231, 96.7%,20030816-20211231, 97.8%
USC00125337,40.5800,-85.6586,240.8,IN,MARION 2 N,,15,-5,19530613-20211231, 92.3%,19870922-20211231, 88.8%,20041110-20211231, 84.8%
USC00125394,39.8438,-87.1875,215.8,IN,MARSHALL,,15,-5,20020101-20211231, 96.0%,20120101-20211231, 96.5%,20161231-20211231, 94.2%
USC00125407,39.4039,-86.4531,180.4,IN,MARTINSVILLE 2 SW,,15,-5,19620618-20201231, 85.8%,19910924-20201231, 86.5%,20060513-20201231, 82.0%
USC00125535,41.1588,-86.9013,211.8,IN,MEDARYVILLE 5 N,,15,-5,19480701-20171001, 86.4%,19830215-20171001, 82.5%,20000608-20171001, 84.0%
USC00126151,37.9325,-87.3744,115.8,IN,NEWBURGH LOCK & DAM,,15,-6,19611201-20210201, 84.3%,19910703-20210201, 82.9%,20060418-20210201, 92.2%
USC00126864,40.7646,-86.0740,201.2,IN,PERU,,15,-5,19480701-20210201, 84.9%,19841016-20210201, 79.3%,20021209-20210201, 71.6%
USC00127069,40.4667,-84.9667,-999.9,IN,PORTLAND WATER WORKS,,15,-5,19480701-20201231, 80.7%,19840930-20201231, 81.6%,20021115-20201231, 69.0%
USC00127298,40.9239,-87.1754,192.0,IN,RENSSELAER,,15,-6,19700605-20201231, 76.0%,19950918-20201231, 78.5%,20080510-20201231, 97.9%
USC00127482,41.0665,-86.2096,231.6,IN,ROCHESTER,,15,-5,19481013-20210201, 84.5%,19841207-20210201, 86.4%,20030104-20210201, 86.6%
USC00127930,38.9616,-85.8608,182.9,IN,SEYMOUR HIWAY GARAGE,,15,-5,19480701-20201231, 91.5%,19840930-20201231, 92.1%,20021115-20201231, 90.5%
USC00127999,39.5282,-85.7914,229.2,IN,SHELBYVILLE SEWAGE PLANT,,15,-5,19710101-20210104, 82.7%,19960103-20210104, 89.9%,20080704-20210104, 88.2%
USC00128036,38.5529,-86.7944,145.4,IN,SHOALS 8 S,,15,-5,19480701-20210109, 97.0%,19841005-20210109, 96.5%,20021122-20210109, 96.3%
USC00128442,38.2671,-87.1430,198.1,IN,STENDAL,,15,-5,19951101-20201103, 67.1%,20080503-20201103, 91.2%,20140803-20201103, 98.8%
USC00128784,40.2233,-86.1086,271.3,IN,TIPTON 5 SW,,15,-5,19830501-20210101, 93.2%,20020302-20210101, 93.0%,20110802-20210101, 92.3%
USC00128967,37.7952,-87.9930,103.6,IN,J.T. MYERS LOCKS & DAM,,15,-6,19740911-20201103, 77.7%,19971007-20201103, 72.7%,20090421-20201103, 89.5%
USC00128992,41.5436,-87.0319,264.9,IN,VALPARAISO 5NNE,,15,-6,20051203-20140501, 84.1%,20100215-20140501, 99.9%,20120324-20140501, 99.9%
USC00129174,39.4538,-85.6963,251.8,IN,WALDRON 2 W,,15,-5,19501205-20210111, 90.3%,19851223-20210111, 89.8%,20030703-20210111, 90.2%
USC00129430,40.4750,-86.9919,215.8,IN,WEST LAFAYETTE 6 NW,,15,-5,19530808-20210104, 93.3%,19870422-20210104, 92.6%,20040227-20210104, 95.6%
USC00129724,41.1645,-84.8482,216.4,IN,WOODBURN 3N,,15,-5,20090112-20210101, 91.3%,20150107-20210101, 93.0%,20180104-20210101, 85.9%
USC00130149,40.7039,-93.3703,332.2,IA,ALLERTON,,15,-6,19480801-20210113, 31.2%,19841022-20210113, 55.5%,20021203-20210113, 92.9%
USC00130200,42.0208,-93.7741,335.0,IA,AMES 8 WSW,,15,-6,19640906-20210104, 94.3%,19921105-20210104, 93.1%,20061205-20210104, 97.0%
USC00130364,41.4175,-95.0041,351.1,IA,ATLANTIC 1 NE,,15,-6,19510108-20210101, 87.9%,19860104-20210101, 86.4%,20030704-20210101, 94.3%
USC00130536,40.8069,-94.0474,370.3,IA,BEACONSFIELD,,15,-6,19690709-20210103, 89.2%,19950407-20210103, 88.5%,20080219-20210103, 93.3%
USC00130608,42.2611,-90.4231,183.8,IA,BELLEVUE L AND D 12,,15,-6,19480811-20210202, 92.7%,19841106-20210202, 88.2%,20021220-20210202, 97.3%
USC00130853,42.1255,-95.1886,453.2,IA,BOYER 4 SE,,15,-6,19501001-20210101, 90.6%,19851116-20210101, 89.2%,20030610-20210101, 92.7%
USC00131060,40.7747,-91.1165,210.3,IA,BURLINGTON 2S,,15,-6,19641216-20210203, 81.8%,19930109-20210203, 76.5%,20070122-20210203, 83.0%
USC00131126,43.1876,-91.8620,376.4,IA,CALMAR NE,,15,-6,20090203-20210203, 96.7%,20150203-20210203, 98.9%,20180203-20210203, 99.6%
USC00131245,41.2738,-95.4025,332.2,IA,CARSON 3NNE,,15,-6,19501001-20210203, 95.9%,19851202-20210203, 94.1%,20030704-20210203, 94.5%
USC00131257,42.2979,-91.0116,248.1,IA,CASCADE,,15,-6,19480801-20210203, 94.9%,19841102-20210203, 91.5%,20021219-20210203, 97.9%
USC00131354,40.6833,-92.9000,310.9,IA,CENTERVILLE 4 SSW,,15,-6,19480801-20210104, 90.0%,19841018-20210104, 90.8%,20021126-20210104, 89.4%
USC00131363,42.2001,-91.5233,252.4,IA,CENTRAL CITY,,15,-6,19551217-20210208, 87.0%,19880713-20210208, 85.4%,20041026-20210208, 97.3%
USC00131442,42.7833,-95.5500,381.0,IA,CHEROKEE 3 N,,15,-6,19480801-20210203, 35.2%,19841102-20210203, 54.9%,20021219-20210203, 99.1%
USC00132041,42.7255,-94.1952,338.3,IA,DAKOTA CITY,,15,-6,20091102-20210101, 88.5%,20150603-20210101, 99.9%,20180318-20210101, 99.8%
USC00132240,41.5077,-94.2269,339.9,IA,DEXTER,,15,-6,19480801-20210104, 83.0%,19841018-20210104, 77.0%,20021126-20210104, 96.1%
USC00132977,43.2844,-93.6305,390.1,IA,FOREST CITY 2 NNE,,15,-6,19480801-20210105, 77.3%,19841018-20210105, 80.5%,20021127-20210105, 79.0%
USC00133473,41.7200,-92.7490,275.8,IA,GRINNELL 3 SW,,15,-6,19480801-20191101, 89.0%,19840317-20191101, 90.8%,20020108-20191101, 93.9%
USC00133944,42.1558,-96.0830,326.1,IA,HORNICK 5S,,15,-6,19480801-20180424, 85.0%,19830613-20180424, 91.2%,20001117-20180424, 93.5%
USC00134101,41.6093,-91.5051,195.1,IA,IOWA CITY,,15,-6,19790901-20210204, 88.3%,20000519-20210204, 87.1%,20100927-20210204, 89.0%
USC00134142,42.5188,-93.2536,321.6,IA,IOWA FALLS,,15,-6,19480801-20210104, 92.7%,19841018-20210104, 90.7%,20021126-20210104, 94.8%
USC00134174,41.7750,-95.1525,399.3,IA,IRWIN 3 ESE,,15,-6,19501001-20210202, 95.7%,19851202-20210202, 93.3%,20030704-20210202, 92.8%
USC00134381,40.3968,-91.3749,160.6,IA,KEOKUK LOCK DAM 19,,15,-6,19480801-20210201, 92.2%,19841101-20210201, 88.7%,20021217-20210201, 97.0%
USC00134502,41.3247,-93.1008,272.8,IA,KNOXVILLE,,15,-6,19480801-20210111, 84.0%,19841021-20210111, 83.3%,20021201-20210111, 86.6%
USC00134585,40.6233,-93.9343,343.8,IA,LAMONI,,15,-6,19480801-20210104, 67.2%,19841018-20210104, 84.7%,20021126-20210104, 97.7%
USC00134746,40.8747,-94.5717,383.1,IA,LENOX,,15,-6,19480801-20210105, 90.9%,19841018-20210105, 92.6%,20021127-20210105, 93.0%
USC00134963,41.8604,-90.9222,224.9,IA,LOWDEN,,15,-6,19870625-20210208, 95.1%,20040417-20210208, 93.6%,20120912-20210208, 99.6%
USC00135198,42.0647,-92.9244,265.2,IA,MARSHALLTOWN,,15,-6,19480801-20210111, 92.8%,19841021-20210111, 88.5%,20021201-20210111, 91.7%
USC00135315,43.0240,-91.1746,191.1,IA,MCGREGOR,,15,-6,19511005-20210201, 95.0%,19860604-20210201, 96.1%,20031003-20210201, 98.1%
USC00135584,41.5500,-95.9333,307.8,IA,MISSOURI VALLEY 2 WSW,,15,-6,19480801-20210209, 86.7%,19841105-20210209, 84.7%,20021223-20210209, 95.7%
USC00135769,40.7052,-94.2427,347.5,IA,MOUNT AYR,,15,-6,19480801-20210104, 86.6%,19841018-20210104, 83.6%,20021126-20210104, 90.2%
USC00135796,40.9486,-91.5647,222.5,IA,MOUNT PLEASANT 1 SSW,,15,-6,19480801-20210216, 85.6%,19841108-20210216, 75.2%,20021228-20210216, 63.7%
USC00135823,42.4916,-96.0688,365.8,IA,MOVILLE,,15,-6,19480801-20210201, 89.6%,19841101-20210201, 87.9%,20021217-20210201, 88.4%
USC00136076,41.5170,-92.0597,242.9,IA,NORTH ENGLISH,,15,-6,19480801-20210203, 83.9%,19841102-20210203, 80.0%,20021219-20210203, 93.6%
USC00136190,43.4144,-95.5313,381.0,IA,OCHEYEDAN,,15,-6,20051201-20130901, 96.0%,20091016-20130901, 95.8%,20110924-20130901, 95.3%
USC00136975,42.8169,-95.9711,405.4,IA,REMSEN,,15,-6,19480801-20210201, 96.8%,19841101-20210201, 96.3%,20021217-20210201, 94.3%
USC00137058,43.2957,-94.5108,388.6,IA,RINGSTED,,15,-6,19480814-20210101, 90.6%,19841023-20210101, 93.5%,20021127-20210101, 96.6%
USC00137326,43.3817,-92.9232,347.2,IA,ST ANSGAR,,15,-6,19480809-20210201, 92.7%,19841105-20210201, 93.0%,20021219-20210201, 98.0%
USC00137340,41.2875,-93.8078,323.7,IA,ST CHARLES,,15,-6,19480801-20210113, 90.0%,19841022-20210113, 93.7%,20021203-20210113, 96.3%
USC00137572,42.9216,-93.2827,349.0,IA,SHEFFIELD 3 NW,,15,-6,19480801-20210102, 92.2%,19841017-20210102, 92.2%,20021125-20210102, 96.2%
USC00137582,41.5114,-95.4406,399.9,IA,SHELBY,,15,-6,19501001-20210211, 90.6%,19851206-20210211, 89.4%,20030710-20210211, 92.9%
USC00137602,42.7042,-92.5906,284.4,IA,SHELL ROCK 1 SW,,15,-6,19480801-20210102, 93.0%,19841017-20210102, 93.3%,20021125-20210102, 98.4%
USC00137613,40.7719,-95.3568,304.5,IA,SHENANDOAH,,15,-6,20031122-20210201, 64.2%,20120627-20210201, 97.6%,20161014-20210201, 96.2%
USC00137664,43.4047,-95.7483,466.0,IA,SIBLEY,,15,-6,19910101-20210204, 69.4%,20060118-20210204, 50.6%,20130728-20210204, 99.9%
USC00137700,43.0558,-96.1525,414.5,IA,SIOUX CENTER 2 SE,,15,-6,19480801-20210104, 92.2%,19841018-20210104, 95.1%,20021126-20210104, 97.0%
USC00137774,41.9811,-95.7769,342.9,IA,SOLDIER,,15,-6,19480801-20210213, 91.1%,19841107-20210213, 85.2%,20021226-20210213, 92.7%
USC00137844,43.1652,-95.1466,404.2,IA,SPENCER 1 N,,15,-6,19480901-20210201, 49.1%,19841116-20210201, 60.3%,20021225-20210201, 77.1%
USC00138009,42.6853,-91.5330,365.8,IA,STRAWBERRY POINT,,15,-6,19480806-20210201, 94.0%,19841103-20210201, 90.2%,20021218-20210201, 94.2%
USC00138315,42.1865,-92.4722,285.0,IA,TRAER,,15,-6,19480801-20210101, 95.5%,19841016-20210101, 92.0%,20021124-20210101, 93.2%
USC00138646,41.0458,-95.0869,388.6,IA,STANTON 4N,,15,-6,19480801-20210203, 91.4%,19841102-20210203, 95.3%,20021219-20210203, 95.7%
USC00138688,41.2824,-91.7078,209.4,IA,WASHINGTON,,15,-6,19480801-20210201, 94.2%,19841101-20210201, 90.9%,20021217-20210201, 96.5%
USC00138806,42.4685,-93.7974,326.7,IA,WEBSTER CITY,,15,-6,19480801-20210111, 90.1%,19841021-20210111, 84.2%,20021201-20210111, 90.4%
USC00139164,41.7450,-95.7091,332.2,IA,WOODBINE,,15,-6,19480801-20120801, 93.0%,19800801-20120801, 94.6%,19960801-20120801, 92.5%
USC00139165,41.7590,-95.6440,368.8,IA,WOODBINE 4ENE,,15,-6,20120807-20210213, 93.3%,20161110-20210213, 93.4%,20181228-20210213, 95.4%
USC00140326,37.8894,-98.1785,483.1,KS,ARLINGTON,,15,-6,19781025-20201231, 80.9%,19991128-20201231, 83.1%,20100615-20201231, 70.3%
USC00140441,39.6980,-101.0039,903.4,KS,ATWOOD 8SSE,,15,-6,19640422-20190213, 77.2%,19910918-20190213, 72.6%,20050601-20190213, 74.9%
USC00140637,37.6557,-96.5352,484.6,KS,BEAUMONT,,15,-6,19480801-20201231, 91.0%,19841016-20201231, 93.3%,20021123-20201231, 95.9%
USC00140750,37.8923,-97.4827,420.6,KS,BENTLEY 2E,,15,-6,20120401-20201231, 99.5%,20160816-20201231, 99.7%,20181024-20201231, 99.9%
USC00140957,39.0636,-94.8960,259.1,KS,BONNER SPRINGS,,15,-6,19880301-20210203, 79.6%,20040817-20210203, 74.8%,20121110-20210203, 96.8%
USC00141233,37.0403,-97.6101,354.2,KS,CALDWELL,,15,-6,19480801-20201202, 93.5%,19841001-20201202, 94.6%,20021101-20201202, 92.4%
USC00141351,38.0212,-96.6036,463.3,KS,CASSODAY 2SE,,15,-6,19480801-20201231, 93.6%,19841016-20201231, 91.9%,20021123-20201231, 90.1%
USC00141404,38.1937,-95.0724,289.6,KS,CENTERVILLE 4SW,,15,-6,19941201-20210201, 79.2%,20080101-20210201, 72.9%,20140718-20210201, 97.3%
USC00141612,38.9407,-95.3396,298.7,KS,CLINTON LAKE,,15,-6,19770413-20210104, 90.5%,19990223-20210104, 91.0%,20100129-20210104, 96.7%
USC00141699,39.3925,-101.0689,966.2,KS,COLBY 1SW,,15,-6,19500101-20210202, 88.2%,19850718-20210202, 84.7%,20030426-20210202, 92.2%
USC00141730,38.8971,-100.1135,733.7,KS,COLLYER 10 S,,15,-6,19490801-20210201, 94.3%,19850502-20210201, 93.2%,20030318-20210201, 94.5%
USC00141740,37.2500,-94.8667,274.9,KS,COLUMBUS 6 NNW,,15,-6,19480801-20210201, 94.4%,19841101-20210201, 94.3%,20021217-20210201, 94.3%
USC00142432,37.0833,-101.8500,1096.1,KS,ELKHART 6 NNE,,15,-6,19490101-20210203, 62.9%,19850117-20210203, 86.6%,20030126-20210203, 97.7%
USC00142560,37.0459,-99.9964,600.5,KS,ENGLEWOOD 1 NW,,15,-6,19480801-20081021, 94.0%,19780911-20081021, 90.6%,19931001-20081021, 95.0%
USC00142582,37.5668,-95.2458,273.4,KS,ERIE,,15,-6,19970901-20201231, 95.1%,20090502-20201231, 97.9%,20150302-20201231, 99.9%
USC00142686,37.6475,-96.0780,314.2,KS,FALL RIVER LAKE,,15,-6,19481101-20201231, 95.0%,19841201-20201231, 92.1%,20021216-20201231, 90.6%
USC00142835,37.8172,-94.6987,269.4,KS,FORT SCOTT,,15,-6,20200914-20210228, 91.1%,20201206-20210228, 82.4%,20210117-20210228, 76.7%
USC00142938,38.6366,-98.8722,597.4,KS,GALATIA 4E,,15,-6,19821101-20201231, 85.0%,20011201-20201231, 89.3%,20110617-20201231, 84.3%
USC00142980,37.9930,-100.8121,880.9,KS,GARDEN CITY EXP STA,,15,-6,19480801-20210201, 91.8%,19841101-20210201, 89.7%,20021217-20210201, 90.6%
USC00143248,37.3594,-96.4496,353.3,KS,GRENOLA 1 N,,15,-6,19480801-20201231, 91.9%,19841016-20201231, 91.2%,20021123-20201231, 87.8%
USC00143527,38.8586,-99.3358,612.6,KS,HAYS 1 S,,15,-6,19480801-20210201, 92.3%,19841101-20210201, 91.3%,20021217-20210201, 89.0%
USC00143554,38.6002,-100.6196,868.7,KS,HEALY,,15,-6,19480801-20210201, 86.6%,19841101-20210201, 80.1%,20021217-20210201, 96.8%
USC00143634,39.7833,-95.5167,353.6,KS,HIAWATHA 5 SSE,,15,-6,20200617-20210301, 91.1%,20201023-20210301, 99.2%,20201226-20210301, 98.5%
USC00143665,39.3618,-99.8279,649.8,KS,HILL CITY 1E,,15,-6,19831001-20210211, 85.9%,20020607-20210211, 93.3%,20111010-20210211, 96.2%
USC00143686,38.6645,-94.8901,307.8,KS,HILLSDALE LAKE,,15,-6,19851126-20210201, 84.6%,20030630-20210201, 87.7%,20120416-20210201, 96.8%
USC00143954,37.2363,-95.7002,245.4,KS,INDEPENDENCE,,15,-6,19970602-20201231, 95.7%,20090317-20201231, 96.3%,20150207-20201231, 97.3%
USC00143984,37.9233,-95.4241,290.8,KS,IOLA 1 W,,15,-6,19510101-20201231, 78.0%,19851231-20201231, 91.3%,20030702-20201231, 96.4%
USC00143997,39.6611,-98.3483,468.5,KS,IONIA,,15,-6,19480801-20210201, 94.9%,19841101-20210201, 97.3%,20021217-20210201, 98.0%
USC00144178,38.6078,-97.9596,454.8,KS,KANOPOLIS LAKE,,15,-6,19480801-20201231, 93.6%,19841016-20201231, 91.6%,20021123-20201231, 96.1%
USC00144341,37.0174,-98.4899,403.9,KS,KIOWA,,15,-6,19480801-20210206, 93.9%,19841103-20210206, 92.9%,20021221-20210206, 99.1%
USC00144370,39.0479,-95.1929,332.2,KS,KU-FIELD STATION,,15,-6,20191025-20210301,100.0%,20200627-20210301, 99.6%,20201028-20210301, 99.2%
USC00145039,38.3779,-97.0754,417.3,KS,MARION RESERVOIR,,15,-6,19660511-20201231, 90.9%,19930905-20201231, 95.7%,20070504-20201231, 97.5%
USC00145210,38.5039,-95.7037,333.5,KS,MELVERN LAKE,,15,-6,19730401-20210105, 89.3%,19970217-20210105, 89.7%,20090126-20210105, 97.8%
USC00145306,39.0745,-96.8982,369.7,KS,MILFORD LAKE,,15,-6,19670711-20210104, 85.4%,19940408-20210104, 78.3%,20070822-20210104, 96.6%
USC00145536,37.1873,-95.4508,243.8,KS,MOUND VALLEY 3 WSW,,15,-6,19571004-20201231, 95.6%,19890518-20201231, 95.9%,20050310-20201231, 97.3%
USC00145787,39.8135,-100.2417,792.8,KS,NORCATUR 3 WSW,,15,-6,19480801-20210103, 92.6%,19841017-20210103, 88.5%,20021125-20210103, 92.0%
USC00145852,39.8114,-99.9386,715.1,KS,NORTON DAM,,15,-6,19630403-20201231, 81.0%,19920216-20201231, 77.1%,20060725-20201231, 73.8%
USC00145888,39.1130,-100.9447,945.5,KS,OAKLEY 4W,,15,-6,19490801-20210201, 90.3%,19850502-20210201, 87.6%,20030318-20210201, 92.0%
USC00146333,39.1174,-95.4101,291.7,KS,PERRY LAKE,,15,-6,19700209-20210104, 87.7%,19950724-20210104, 79.4%,20080414-20210104, 80.7%
USC00146374,39.7667,-99.3167,595.0,KS,PHILLIPSBURG,,15,-6,19480801-20210203, 91.8%,19841102-20210203, 87.1%,20021219-20210203, 90.4%
USC00146498,38.6449,-95.5660,324.0,KS,POMONA LAKE,,15,-6,19630708-20210104, 88.2%,19920406-20210104, 80.0%,20060821-20210104, 91.3%
USC00147546,38.7056,-97.8461,438.9,KS,SMOKY HILL AIR NATIONAL GUARD RANGE,,15,-6,20110901-20171205, 94.5%,20141018-20171205, 99.9%,20160512-20171205, 99.8%
USC00147756,38.7814,-94.6689,326.4,KS,STILWELL 1N,,15,-6,19821001-20210203, 88.2%,20011202-20210203, 82.8%,20110704-20210203, 92.8%
USC00147922,37.4415,-100.9793,898.9,KS,SUBLETTE 7WSW,,15,-6,19580224-20210223, 87.4%,19890825-20210223, 92.5%,20050525-20210223, 94.4%
USC00148235,38.4661,-101.7730,1107.6,KS,TRIBUNE 1W,,15,-7,19480801-20210201, 89.2%,19841101-20210201, 84.3%,20021217-20210201, 82.3%
USC00148250,39.8283,-95.0880,317.0,KS,TROY 3N,,15,-6,19880322-20210203, 88.4%,20040828-20210203, 87.9%,20121115-20210203, 97.1%
USC00148293,37.8488,-94.9765,274.3,KS,UNIONTOWN,,15,-6,19821013-20160803, 87.7%,19990908-20160803, 87.9%,20080220-20160803, 86.5%
USC00148535,38.9167,-101.5833,1010.1,KS,WALLACE,,15,-7,19480901-20210201, 90.1%,19841116-20210201, 86.4%,20021225-20210201, 84.9%
USC00148847,37.6552,-97.4430,406.6,KS,WICHITA WX,,15,-6,20100501-20201231, 96.5%,20150831-20201231, 96.6%,20180501-20201231, 93.5%
USC00148946,38.9667,-98.4890,460.9,KS,WILSON LAKE,,15,-6,19640923-20200701, 91.3%,19920812-20200701, 91.8%,20060722-20200701, 94.5%
USC00150381,36.8825,-83.8819,301.8,KY,BARBOURVILLE,,15,-5,19480801-20160916, 78.5%,19820824-20160916, 62.9%,19990905-20160916, 63.4%
USC00150450,36.8582,-83.3302,354.8,KY,BAXTER,,15,-5,19480801-20160101, 72.6%,19820417-20160101, 57.3%,19990223-20160101, 58.5%
USC00150611,36.8580,-88.3363,111.3,KY,BENTON,,15,-6,19480801-20210202, 83.7%,19841101-20210202, 83.1%,20021218-20210202, 90.9%
USC00151227,37.5319,-87.2669,122.5,KY,CALHOUN LOCK 2,,15,-6,19561001-20210211, 79.8%,19881206-20210211, 78.7%,20050108-20210211, 86.9%
USC00151631,36.6833,-89.0000,121.9,KY,CLINTON,,15,-6,19480801-20210111, 88.5%,19841021-20210111, 88.7%,20021201-20210111, 84.8%
USC00152775,38.6873,-84.3585,249.6,KY,FALMOUTH,,15,-5,19750201-20210204, 45.3%,19980202-20210204, 19.3%,20090804-20210204, 38.5%
USC00152776,38.6018,-84.3006,239.6,KY,FALMOUTH5 SSE,,15,-5,20150506-20160722, 77.9%,20151213-20160722, 56.5%,20160402-20160722, 83.9%
USC00152979,37.6371,-86.7206,146.3,KY,FORDSVILLE,,15,-6,19710501-20201012, 88.2%,19960121-20201012, 85.3%,20080601-20201012, 93.6%
USC00153194,38.2094,-84.5621,245.4,KY,GEORGETOWN WATER WKS,,15,-5,20130612-20200901, 98.5%,20170121-20200901, 97.0%,20181111-20200901, 94.1%
USC00153744,37.5787,-83.7659,350.5,KY,HEIDELBERG 2N,,15,-5,20071104-20110802, 93.0%,20090917-20110802, 99.2%,20100825-20110802, 98.7%
USC00153798,36.6702,-87.5588,170.7,KY,HERNDON 5S,,15,-6,19480801-20210201, 83.9%,19841101-20210201, 71.0%,20021217-20210201, 83.6%
USC00153929,37.5316,-85.7350,240.2,KY,HODGENVILLE LINCOLN P,,15,-5,19480801-20200901, 81.5%,19840816-20200901, 70.2%,20020824-20200901, 59.9%
USC00154948,38.1250,-82.6934,232.3,KY,LOUISA 5W,,15,-5,19961204-20210204, 85.3%,20090104-20210204, 87.6%,20150120-20210204, 91.2%
USC00154955,38.2778,-85.7917,134.1,KY,LOUISVILLE MCALPINE,,15,-5,19820701-20200827, 80.8%,20010729-20200827, 76.3%,20110211-20200827, 92.6%
USC00155067,37.3475,-87.5238,129.5,KY,MADISONVILLE,,15,-6,19490301-20210201, 86.8%,19850215-20210201, 78.5%,20030208-20210201, 78.9%
USC00155243,38.6869,-83.7872,157.0,KY,MAYSVILLE WASTEWATER TREATMENT PLANT,,15,-5,19480801-20210219, 68.7%,19841110-20210219, 57.9%,20021231-20210219, 50.7%
USC00156012,38.3423,-83.1038,270.7,KY,OLIVE HILL 5NE,,15,-5,19480801-20190228, 67.5%,19831115-20190228, 67.4%,20010707-20190228, 51.7%
USC00156170,38.2052,-84.2382,242.3,KY,PARIS,,15,-5,19711101-20201231, 84.5%,19960601-20201231, 87.7%,20080915-20201231, 91.0%
USC00157215,36.7462,-86.2259,226.5,KY,SCOTTSVILLE,,15,-6,19841001-20201027, 52.9%,20021014-20201027, 14.9%,20111021-20201027, 29.0%
USC00157473,38.3409,-85.2799,259.1,KY,SMITHFIELD 4 S,,15,-5,19480801-20201231, 89.6%,19841016-20201231, 84.5%,20021123-20201231, 83.5%
USC00157622,37.8370,-82.8622,231.6,KY,STAFFORDSVILLE 2 NW,,15,-5,19820521-20201231, 62.1%,20010910-20201231, 76.5%,20110507-20201231, 99.5%
USC00157677,36.6736,-84.4791,371.9,KY,STEARNS 2S,,15,-5,19480801-20150504, 76.3%,19811217-20150504, 83.0%,19980825-20150504, 78.4%
USC00157948,38.0144,-85.3713,152.4,KY,TAYLORSVILLE 2SW,,15,-5,20030905-20201231, 48.3%,20120503-20201231, 92.6%,20160901-20201231, 91.5%
USC00158070,36.8136,-85.7080,257.6,KY,TOMPKINSVILLE 9NW,,15,-6,19501201-20151209, 33.0%,19830605-20151209, 53.3%,19990906-20151209, 57.9%
USC00158719,37.8012,-85.1127,263.0,KY,WILLISBURG,,15,-5,19681024-20170814, 69.5%,19930320-20170814, 55.4%,20050601-20170814, 48.5%
USC00158824,37.1852,-86.6335,134.1,KY,WOODBURY,,15,-6,19480801-20201008, 89.7%,19840904-20201008, 83.8%,20020921-20201008, 90.2%
USC00161287,30.9594,-92.1786,24.4,LA,BUNKIE,,15,-6,19770101-20100415, 71.2%,19930823-20100415, 56.8%,20011218-20100415, 30.5%
USC00161411,32.5372,-92.3598,36.6,LA,CALHOUN 2 N,,15,-6,19680410-20160802, 81.7%,19920606-20160802, 67.0%,20040704-20160802, 48.9%
USC00161866,31.7236,-91.5408,22.3,LA,CLAYTON,,15,-6,20040107-20120930, 50.5%,20080519-20120930, 52.8%,20100725-20120930, 40.5%
USC00161899,30.8177,-90.9733,61.0,LA,CLINTON 5 SE,,15,-6,19740701-20170321, 88.4%,19951110-20170321, 83.0%,20060716-20170321, 83.1%
USC00161979,32.1673,-92.1077,25.0,LA,COLUMBIA LOCK,,15,-6,20170218-20201231, 54.7%,20190125-20201231, 86.6%,20200113-20201231, 73.4%
USC00162534,30.0719,-91.0278,9.1,LA,DONALDSONVILLE 4 SW,,15,-6,19880601-20190401, 86.8%,20031031-20190401, 80.4%,20110716-20190401, 76.7%
USC00164030,30.5030,-90.3772,10.7,LA,HAMMOND 5 E,,15,-6,19840101-20190207, 83.4%,20010720-20190207, 72.8%,20100429-20190207, 71.2%
USC00164696,31.6782,-92.1288,43.6,LA,JENA,,15,-6,19860204-20201231, 79.1%,20030719-20201231, 74.1%,20120409-20201231, 83.8%
USC00164700,30.2002,-92.6641,7.6,LA,JENNINGS,,15,-6,19700301-20100501, 76.6%,19900331-20100501, 71.7%,20000415-20100501, 47.1%
USC00164739,31.4825,-91.8627,21.3,LA,JONESVILLE LOCKS,,15,-6,19720406-20201231, 84.4%,19960818-20201231, 80.9%,20081024-20201231, 87.9%
USC00165021,30.2191,-92.0650,7.6,LA,LAFAYETTE,,15,-6,19520310-20100603, 86.0%,19810421-20100603, 73.9%,19951111-20100603, 54.0%
USC00165287,31.0516,-93.2788,79.2,LA,LEESVILLE 6 SSW,,15,-6,19940803-20100525, 49.5%,20020629-20100525, 13.7%,20060611-20100525,  4.1%
USC00165620,30.3644,-91.1672,6.4,LA,LSU BEN-HUR FARM,,15,-6,19820501-20130123, 76.4%,19970911-20130123, 67.8%,20050518-20130123, 39.7%
USC00165874,32.0712,-93.7588,98.1,LA,MANSFIELD 4 NW,,15,-6,19961001-20201231, 59.1%,20081115-20201231, 40.5%,20141208-20201231, 40.6%
USC00166244,32.6052,-93.2947,56.4,LA,MINDEN,,15,-6,19640305-20201231, 86.2%,19920802-20201231, 80.6%,20061017-20201231, 75.1%
USC00166314,32.4935,-92.0319,21.3,LA,MONROE DELTA CC,,15,-6,19770705-20091027, 88.7%,19930831-20091027, 84.4%,20010928-20091027, 74.7%
USC00166394,29.6833,-91.1761,1.5,LA,MORGAN CITY,,15,-6,19471001-20100618, 83.1%,19790208-20100618, 69.8%,19941013-20100618, 50.0%
USC00166582,31.7722,-93.0955,39.6,LA,NATCHITOCHES,,15,-6,19680701-20080530, 89.1%,19880615-20080530, 83.9%,19980607-20080530, 83.3%
USC00166584,31.8142,-93.0856,43.0,LA,NATCHITOCHES #2,,15,-6,20081126-20201231, 83.6%,20141214-20201231, 99.7%,20171222-20201231, 99.5%
USW00012930,29.9166,-90.1302,6.1,LA,NEW ORLEANS AUDUBON,,15,-6,19630101-20210301, 87.3%,19920131-20210301, 80.8%,20060816-20210301, 67.9%
USC00167691,32.4936,-91.7486,27.1,LA,RAYVILLE,,15,-6,20060315-20151201, 73.1%,20110122-20151201, 87.5%,20130627-20151201, 96.6%
USC00167738,32.4219,-93.6380,47.2,LA,RED RIVER RESEARCH STATION,,15,-6,19751101-20201231, 85.3%,19980601-20201231, 75.4%,20090915-20201231, 69.3%
USC00168163,31.9497,-91.2336,23.8,LA,ST JOSEPH 3 N,,15,-6,20030401-20130810, 75.0%,20080605-20130810, 66.3%,20110107-20130810, 61.5%
USW00013957,32.4472,-93.8244,77.4,LA,SHREVEPORT AP,72248,15,-6,19471001-20131231, 88.3%,19801115-20131231, 97.7%,19970608-20131231, 95.8%
USC00168444,32.3795,-93.8019,57.3,LA,SHREVEPORT SOUTHERN HILLS,,15,-6,20051213-20201231, 84.0%,20130622-20201231, 95.6%,20170327-20201231, 99.3%
USC00168539,30.2500,-89.7667,3.0,LA,SLIDELL WSFO,,15,-6,19740408-20171002, 84.8%,19960104-20171002, 76.0%,20061118-20171002, 57.3%
USC00168785,32.7025,-92.0813,25.9,LA,STERLINGTON,,15,-6,20051220-20091211, 92.7%,20071216-20091211, 86.6%,20081213-20091211, 86.2%
USC00169013,29.7547,-90.7748,4.6,LA,THIBODAUX 4 SE,,15,-6,20111230-20190402, 49.9%,20150816-20190402, 81.3%,20170608-20190402, 81.2%
USC00169357,31.5652,-91.4332,18.3,LA,VIDALIA NO 2,,15,-6,19521101-20121012, 85.0%,19821022-20121012, 74.7%,19971017-20121012, 67.2%
USC00169803,31.9622,-92.6561,48.8,LA,WINNFIELD 3 N,,15,-6,19561114-20201231, 85.2%,19881207-20201231, 74.8%,20041219-20201231, 58.4%
USC00169806,32.0997,-91.7022,24.4,LA,WINNSBORO 5 SSE,,15,-6,19560822-20201214, 88.7%,19881018-20201214, 82.2%,20041115-20201214, 75.0%
USC00170100,44.3738,-68.2591,143.3,ME,ACADIA NATIONAL PARK,,15,-5,19820907-20120704, 86.8%,19970805-20120704, 82.3%,20050118-20120704, 83.9%
USC00170200,47.0886,-69.0250,181.7,ME,ALLAGASH,,15,-5,19750821-20120507, 84.9%,19931228-20120507, 85.4%,20030303-20120507, 81.6%
USC00170273,44.3007,-69.7792,8.8,ME,AUGUSTA,,15,-5,19521001-20181025, 80.1%,19851013-20181025, 80.0%,20020419-20181025, 66.9%
USC00171472,46.6109,-69.5231,304.8,ME,CLAYTON LAKE,,15,-5,19480501-20110601, 84.7%,19791115-20110601, 73.9%,19950823-20110601, 66.9%
USC00172878,47.2386,-68.6120,185.9,ME,FORT KENT,,15,-5,19531016-20210201, 85.8%,19870610-20210201, 93.2%,20040406-20210201, 94.0%
USC00173250,46.1412,-68.7906,201.2,ME,GRAND LAKE MATAGAMON,,15,-5,19750911-20210202, 87.6%,19980523-20210202, 84.5%,20090927-20210202, 98.6%
USC00173261,45.1776,-67.7742,88.4,ME,GRAND LAKE STREAM,,15,-5,19480501-20210203, 87.5%,19840917-20210203, 89.7%,20021126-20210203, 87.1%
USC00173295,43.8925,-70.2544,115.2,ME,GRAY,74389,15,-5,20201121-20210222,100.0%,20210106-20210222, 97.9%,20210129-20210222, 96.0%
USC00173862,43.6476,-70.6750,92.7,ME,HOLLIS,,15,-5,20201007-20210205, 95.9%,20201206-20210205, 90.3%,20210105-20210205, 96.9%
USC00173944,46.2061,-67.8418,118.9,ME,HOULTON 5N,,15,-5,19850701-20150501, 92.6%,20000531-20150501, 91.6%,20071115-20150501, 99.3%
USC00174086,45.6260,-70.2460,370.0,ME,JACKMAN,,15,-5,19750923-20190619, 84.4%,19970805-20190619, 85.2%,20080712-20190619, 94.1%
USC00175285,44.5389,-67.8801,8.5,ME,MILBRIDGE,,15,-5,20100524-20210212, 98.0%,20151003-20210212, 97.2%,20180608-20210212, 95.8%
USC00175347,45.2563,-69.0101,128.0,ME,MILO,,15,-5,19750910-20120504, 91.7%,19940106-20120504, 93.0%,20030306-20120504, 91.5%
USC00176435,44.8785,-68.6688,17.7,ME,ORONO 2,,15,-5,19540801-20210201, 88.8%,19871101-20210201, 92.9%,20040617-20210201, 94.4%
USC00177255,44.1030,-69.1157,10.7,ME,ROCKLAND,,15,-5,19481201-20180526, 87.8%,19830829-20180526, 84.9%,20010110-20180526, 77.3%
USC00177336,44.4940,-70.6563,192.0,ME,RUMFORD 6SW,,15,-5,20090801-20190621, 92.3%,20140711-20190621, 90.9%,20161230-20190621, 82.0%
USC00177827,44.7638,-69.7194,50.3,ME,SKOWHEGAN,,15,-5,19480501-20181025, 88.0%,19830729-20181025, 80.8%,20010312-20181025, 72.1%
USC00178942,44.8834,-70.8619,446.5,ME,UPPER DAM,,15,-5,20140531-20180830, 96.5%,20160715-20180830, 93.4%,20170807-20180830, 89.2%
USW00013701,39.4716,-76.1697,17.4,MD,ABERDEEN PHILLIPS FLD,,15,-5,19480501-20210119, 41.4%,19840909-20210119, 59.5%,20021114-20210119, 50.5%
USC00180700,39.0302,-76.9315,44.2,MD,BELTSVILLE,,15,-5,19480501-20210101, 91.2%,19840831-20210101, 87.7%,20021101-20210101, 90.2%
USC00185934,39.7194,-76.8027,262.1,MD,MILLERS 4 NE,,15,-5,19880310-20210102, 89.6%,20040806-20210102, 92.9%,20121019-20210102, 87.5%
USC00188065,39.5099,-79.1401,455.7,MD,SAVAGE RIVER DAM,,15,-5,19490601-20170701, 76.7%,19830616-20170701, 64.4%,20000623-20170701, 56.6%
USC00200089,46.6448,-88.4812,399.3,MI,ALBERTA FORD FOR CENTER,,15,-5,19911101-20210203, 63.9%,20060618-20210203, 78.6%,20131011-20210203, 99.5%
USC00200146,43.3869,-84.6482,221.9,MI,ALMA,,15,-5,20201012-20210301, 82.3%,20201221-20210301, 77.5%,20210125-20210301, 97.2%
USC00200230,42.2981,-83.6639,247.8,MI,ANN ARBOR U OF MICH,,15,-5,19480701-20210201, 94.7%,19841016-20210201, 97.2%,20021209-20210201, 99.8%
USC00200662,44.9758,-85.1980,190.5,MI,BELLAIRE,,15,-5,19480701-20210202, 92.3%,19841017-20210202, 94.5%,20021210-20210202, 99.3%
USC00200766,46.8864,-87.8639,185.3,MI,BIG BAY 8 NW,,15,-5,19610427-20210202, 81.6%,19910316-20210202, 88.5%,20060223-20210202, 93.7%
USC00201088,46.5345,-89.1839,345.9,MI,BRUCE CROSSING,,15,-5,19780814-20210203, 79.3%,19991109-20210203, 80.0%,20100622-20210203, 96.8%
USC00201361,43.5861,-83.1805,212.8,MI,CASS CITY 1 SSW,,15,-5,19921103-20210211, 88.8%,20061223-20210211, 94.6%,20140117-20210211, 99.9%
USC00201486,46.3414,-86.9242,265.2,MI,CHATHAM EXPERIMENT FARM 2,,15,-5,19880802-20210201, 80.4%,20041101-20210201, 94.4%,20121217-20210201, 98.9%
USC00201680,41.9397,-85.0183,289.6,MI,COLDWTR WASTEWTR PLT,,15,-5,19400701-20210201, 73.5%,19801016-20210201, 73.4%,20001209-20210201, 75.8%
USC00201780,47.4679,-87.8671,190.5,MI,COPPER HARBOR FORT WILKINS,,15,-5,19480701-20210202, 75.9%,19841017-20210202, 63.7%,20021210-20210202, 76.9%
USC00202094,45.9983,-83.9013,181.4,MI,DETOUR VILLAGE,,15,-5,19520819-20210208, 89.9%,19861114-20210208, 86.5%,20031227-20210208, 98.2%
USC00202381,45.1518,-85.1324,178.9,MI,EAST JORDAN,,15,-5,20191024-20210301, 94.9%,20200627-20210301, 94.4%,20201028-20210301, 99.2%
USC00202598,46.1280,-85.5696,208.8,MI,ENGADINE MDOT,,15,-5,20140812-20210217, 97.7%,20171114-20210217, 99.9%,20190702-20210217, 99.8%
USW00014824,45.7438,-87.0406,180.1,MI,ESCANABA,,15,-5,19480801-20150622, 73.7%,19820110-20150622, 55.7%,19981001-20150622, 53.7%
USC00202627,45.7181,-87.0939,179.8,MI,ESCANABA #2,,15,-5,20140903-20210202, 96.6%,20171118-20210202, 99.9%,20190627-20210202, 99.8%
USW00014828,43.9758,-84.4908,236.2,MI,GLADWIN,,15,-5,19480701-20210209, 56.9%,19841020-20210209, 92.0%,20021215-20210209, 96.8%
USC00203188,44.5358,-83.7022,272.5,MI,GLENNIE 2SE,,15,-5,20000101-20210204, 68.1%,20100719-20210204, 99.4%,20151027-20210204, 98.9%
USC00203295,43.0618,-86.2044,182.9,MI,GRAND HAVEN WASTEWATER PLANT,,15,-5,19480701-20210210, 89.0%,19841021-20210210, 91.1%,20021216-20210210, 90.9%
USC00203391,44.6546,-84.6998,346.6,MI,GRAYLING,,15,-5,19890801-20210216, 80.6%,20050510-20210216, 95.4%,20130329-20210216, 99.7%
USC00203516,46.2863,-87.4511,337.1,MI,GWINN 1W,,15,-5,19490701-20210208, 86.8%,19850420-20210208, 78.2%,20030316-20210208, 90.3%
USC00203585,43.8322,-82.6427,181.4,MI,HARBOR BEACH 1 SSE,,15,-5,20010601-20210201, 91.9%,20110402-20210201, 98.4%,20160302-20210201, 99.6%
USC00203661,42.6421,-85.2882,250.2,MI,HASTINGS,,15,-5,20110708-20210201, 95.0%,20160420-20210201, 99.3%,20180911-20210201, 99.5%
USC00203947,42.6333,-83.9167,289.9,MI,HOWELL SEWAGE PLANT,,15,-5,19610410-20210205, 91.1%,19910309-20210205, 90.7%,20060221-20210205, 95.0%
USC00204090,45.7858,-88.0841,326.4,MI,IRON MTN-KINGSFORD WWTP,,15,-6,19480701-20210202, 94.3%,19841017-20210202, 95.4%,20021210-20210202, 97.0%
USC00204104,46.4656,-90.1892,435.9,MI,IRONWOOD,,15,-6,20071203-20210201, 92.3%,20140703-20210201, 97.9%,20171017-20210201, 98.5%
USC00204155,42.2884,-84.4236,288.0,MI,JACKSON 3N,,15,-5,19480701-20210201, 85.3%,19841016-20210201, 83.1%,20021209-20210201, 73.1%
USC00204320,43.1994,-85.7717,256.0,MI,KENT CITY 2 SW,,15,-5,19880414-20210201, 76.2%,20040907-20210201, 69.2%,20121119-20210201, 87.3%
USC00204328,46.4863,-88.8916,355.7,MI,KENTON,,15,-5,19500701-20210202, 74.1%,19851017-20210202, 58.0%,20030611-20210202, 68.6%
USC00204502,44.3088,-85.2050,374.9,MI,LAKE CITY EXP FARM,,15,-5,20060901-20210218, 99.5%,20131125-20210218, 99.9%,20170708-20210218, 99.9%
USC00205073,45.9512,-86.2513,182.9,MI,MANISTIQUE WWTP,,15,-5,19921001-20210202, 87.0%,20061202-20210202, 98.1%,20140102-20210202, 99.8%
USW00094850,46.5313,-87.5491,431.3,MI,MARQUETTE WFO,72743,15,-5,19790201-20210203, 83.7%,20000202-20210203, 72.2%,20100804-20210203, 93.0%
USC00205567,43.4614,-86.4175,198.1,MI,MONTAGUE 4 NW,,15,-5,19780614-20210204, 87.2%,19991010-20210204, 90.0%,20100608-20210204, 91.0%
USC00205816,46.3287,-85.5033,270.1,MI,NEWBERRY CORRECTIONAL FACILITY,,15,-5,19510601-20210201, 82.5%,19860402-20210201, 73.0%,20030902-20210201, 65.1%
USC00206215,46.8559,-89.3124,204.5,MI,ONTONAGON,,15,-5,19480901-20210203, 82.4%,19841117-20210203, 76.4%,20021226-20210203, 77.0%
USC00206300,43.0161,-84.1800,222.5,MI,OWOSSO WWTP,,15,-5,19550831-20210201, 85.0%,19880517-20210201, 86.1%,20040924-20210201, 98.1%
USC00207280,43.0113,-84.5541,226.5,MI,SAINT JOHNS,,15,-5,20121207-20210108, 90.3%,20161223-20210108, 94.4%,20181231-20210108, 90.7%
USC00207407,43.9331,-86.2453,203.0,MI,SCOTTVILLE 2SE,,15,-5,20090801-20210201, 85.3%,20150503-20210201,100.0%,20180318-20210201, 99.9%
USC00207812,46.0555,-88.6275,442.0,MI,STAMBAUGH 2SSE,,15,-6,19921001-20210201, 88.5%,20061202-20210201, 92.3%,20140101-20210201, 99.8%
USC00207828,43.2908,-85.0922,283.5,MI,STANTON,,15,-5,19560618-20210201, 74.4%,19881010-20210201, 73.9%,20041206-20210201, 72.7%
USC00208246,44.7686,-85.5763,184.1,MI,TRAVERSE CITY,,15,-5,19580411-20210208, 93.4%,19890909-20210208, 96.2%,20050525-20210208, 97.5%
USC00208293,46.1796,-85.0311,250.9,MI,TROUT LAKE 1SW,,15,-5,19480701-20140601, 82.6%,19810616-20140601, 76.8%,19971208-20140601, 93.2%
USC00208417,45.1702,-84.4397,275.8,MI,VANDERBILT 11ENE,,15,-5,19480701-20210216, 94.8%,19841024-20210216, 95.0%,20021221-20210216, 98.9%
USC00208443,43.3656,-83.5828,192.0,MI,VASSAR,,15,-5,19770701-20210204, 82.8%,19990419-20210204, 79.2%,20100313-20210204, 98.8%
USC00208680,46.3000,-89.0833,484.9,MI,WATERSMEET FISH HATCHERY,,15,-6,20101004-20210201, 94.5%,20151203-20210201, 96.8%,20180703-20210201, 96.1%
USC00209218,42.2469,-83.6256,240.5,MI,YPSILANTI E MICH U,,15,-5,19480101-20210202, 62.9%,19840718-20210202, 84.7%,20021026-20210202, 87.8%
USC00210075,43.6064,-93.3019,374.9,MN,ALBERT LEA 3SE,,15,-6,19480901-20210201, 17.7%,19841116-20210201, 35.1%,20021225-20210201, 70.3%
USC00210116,45.8966,-95.3657,426.7,MN,ALEXANDRIA WATER TREATMENT PLANT,,15,-6,19711001-20210212, 80.3%,19960607-20210212, 72.0%,20081010-20210212, 84.2%
USC00210157,43.8835,-94.1665,313.9,MN,AMBOY,,15,-6,19480801-20190108, 68.0%,19831020-20190108, 66.2%,20010530-20190108, 85.5%
USC00210746,48.1969,-93.7994,371.9,MN,BIG FALLS,,15,-6,19480801-20200205, 87.0%,19840504-20200205, 82.7%,20020321-20200205, 82.6%
USC00210973,46.2680,-96.5913,292.6,MN,BRECKENRIDGE MN,,15,-6,20000701-20090902, 42.4%,20050131-20090902, 29.7%,20070518-20090902, 34.8%
USC00210974,46.3047,-96.5216,296.0,MN,BRECKENRIDGE 3E,,15,-6,20121023-20201231, 87.2%,20161126-20201231, 91.0%,20181214-20201231, 99.9%
USC00211107,45.1969,-93.8399,302.4,MN,BUFFALO 2NE,,15,-6,19480801-20130514, 87.7%,19801222-20130514, 77.9%,19970303-20130514, 67.4%
USC00211227,45.5565,-93.2348,294.1,MN,CAMBRIDGE,,15,-6,19480801-20210208, 79.3%,19841104-20210208, 68.5%,20021222-20210208, 83.6%
USC00211250,48.6100,-95.1816,392.9,MN,CAMP NORRIS DNR,,15,-6,20010901-20210109, 63.2%,20110507-20210109, 68.3%,20160308-20210109, 70.3%
USC00211263,44.7184,-96.2696,368.8,MN,CANBY,,15,-6,19480801-20210201, 85.7%,19841101-20210201, 84.8%,20021217-20210201, 91.5%
USC00211448,44.8496,-93.5644,288.3,MN,CHANHASSEN WSFO,,15,-6,20130322-20210203, 98.1%,20170226-20210203, 99.5%,20190215-20210203, 99.3%
USC00212166,44.0317,-92.8691,386.8,MN,DODGE CENTER,,15,-6,19480826-20210203, 83.5%,19841114-20210203, 90.3%,20021225-20210203, 93.9%
USC00212250,46.8368,-92.2108,436.8,MN,DULUTH NWS,,15,-6,20120228-20210107, 82.4%,20160803-20210107, 78.4%,20181021-20210107, 61.2%
USC00212561,47.9056,-91.8283,449.6,MN,ELY,,15,-6,20120623-20200205, 74.1%,20160414-20200205, 67.7%,20180311-20200205, 62.1%
USC00212645,47.4581,-92.5303,440.4,MN,EVELETH WASTE WATER PLANT,,15,-6,19880823-20210106, 86.8%,20041030-20210106, 84.7%,20121203-20210106, 87.0%
USC00212737,44.6660,-93.1756,292.6,MN,FARMINGTON 3NW,,15,-6,20201118-20210202, 89.6%,20201226-20210202, 76.9%,20210114-20210202, 55.0%
USC00212842,46.9728,-92.8700,384.0,MN,FLOODWOOD 3 NE,,15,-6,19861001-20210101, 82.5%,20031116-20210101, 86.0%,20120609-20210101, 89.0%
USC00212916,47.5639,-95.7246,396.2,MN,FOSSTON 1 E,,15,-6,19480801-20210105, 71.8%,19841018-20210105, 57.7%,20021127-20210105, 58.5%
